id,code,state_id,city,area_code,lat,lon,accuracy
1,99553,1,Akutan,,54.143,-165.7854,1
2,99571,1,Cold Bay,,55.1858,-162.7211,1
3,99583,1,False Pass,,54.8542,-163.4113,1
4,99612,1,King Cove,,55.0628,-162.3056,1
5,99661,1,Sand Point,,55.3192,-160.4914,1
6,99546,1,Adak,,51.874,-176.634,1
7,99547,1,Atka,,52.1961,-174.2006,1
8,99591,1,Saint George Island,,56.5944,-169.6186,1
9,99638,1,Nikolski,,52.9381,-168.8678,1
10,99660,1,Saint Paul Island,,57.1842,-170.2764,1
11,99685,1,Unalaska,,53.8871,-166.5199,1
12,99692,1,Dutch Harbor,,53.8898,-166.5422,1
13,99501,1,Anchorage,,61.2116,-149.8761,1
14,99502,1,Anchorage,,61.1661,-149.96,1
15,99503,1,Anchorage,,61.19,-149.8938,1
16,99504,1,Anchorage,,61.2037,-149.7447,1
17,99505,1,Jber,,59.8666,-158.5996,1
18,99506,1,Jber,,59.8666,-158.5996,1
19,99507,1,Anchorage,,61.1535,-149.8289,1
20,99508,1,Anchorage,,61.206,-149.8101,1
21,99509,1,Anchorage,,61.2181,-149.9003,1
22,99510,1,Anchorage,,61.1446,-149.8784,1
23,99511,1,Anchorage,,61.0683,-149.8005,1
24,99513,1,Anchorage,,61.2149,-149.8862,1
25,99514,1,Anchorage,,61.2181,-149.9003,1
26,99515,1,Anchorage,,61.1194,-149.8974,1
27,99516,1,Anchorage,,61.1054,-149.78,1
28,99517,1,Anchorage,,61.1901,-149.9361,1
29,99518,1,Anchorage,,61.1549,-149.8866,1
30,99519,1,Anchorage,,61.1089,-149.4403,1
31,99520,1,Anchorage,,61.2181,-149.9003,1
32,99521,1,Anchorage,,61.2181,-149.9003,1
33,99522,1,Anchorage,,61.2181,-149.9003,1
34,99523,1,Anchorage,,61.2181,-149.9003,1
35,99524,1,Anchorage,,61.2181,-149.9003,1
36,99529,1,Anchorage,,61.1515,-149.9443,1
37,99530,1,Anchorage,,61.1515,-149.9443,1
38,99540,1,Indian,,61.1089,-149.4403,1
39,99567,1,Chugiak,,61.4098,-149.4537,1
40,99577,1,Eagle River,,61.3114,-149.5085,1
41,99587,1,Girdwood,,60.9577,-149.1406,1
42,99599,1,Anchorage,,61.1872,-149.8804,1
43,99695,1,Anchorage,,61.1089,-149.4403,1
44,99545,1,Kongiganak,,59.9599,-162.8919,1
45,99551,1,Akiachak,,60.9094,-161.4314,4
46,99552,1,Akiak,,60.9122,-161.2139,4
47,99557,1,Aniak,,61.5783,-159.5222,4
48,99559,1,Bethel,,60.7922,-161.7558,4
49,99561,1,Chefornak,,60.1537,-164.2103,1
50,99575,1,Crooked Creek,,61.8181,-158.0025,1
51,99578,1,Eek,,60.2151,-162.0323,1
52,99589,1,Goodnews Bay,,59.1189,-161.5875,1
53,99607,1,Kalskag,,61.541,-160.3261,1
54,99609,1,Kasigluk,,60.8956,-162.5181,1
55,99614,1,Kipnuk,,59.9232,-164.101,1
56,99621,1,Kwethluk,,60.8122,-161.4358,4
57,99622,1,Kwigillingok,,59.8644,-163.1342,1
58,99626,1,Lower Kalskag,,61.5138,-160.36,1
59,99630,1,Mekoryuk,,60.3657,-166.2836,1
60,99634,1,Napakiak,,60.6967,-161.9519,1
61,99637,1,Toksook Bay,,60.5338,-165.1037,1
62,99641,1,Nunapitchuk,,60.8969,-162.4594,1
63,99651,1,Platinum,,59.0131,-161.8164,1
64,99655,1,Quinhagak,,59.7381,-161.8749,1
65,99656,1,Red Devil,,61.7611,-157.3125,1
66,99668,1,Sleetmute,,61.7025,-157.1697,1
67,99679,1,Tuluksak,,61.1088,-160.9389,4
68,99680,1,Tuntutuliak,,60.3431,-162.6631,4
69,99681,1,Tununak,,60.5856,-165.2558,1
70,99690,1,Nightmute,,60.4794,-164.7239,1
71,99613,1,King Salmon,,58.6883,-156.6614,1
72,99633,1,Naknek,,58.783,-156.8992,1
73,99670,1,South Naknek,,58.6639,-156.9756,1
74,99704,1,Clear,,64.2966,-149.1608,4
75,99729,1,Cantwell,,63.3955,-148.8973,1
76,99743,1,Healy,,63.9171,-149.0111,4
77,99744,1,Anderson,,64.3442,-149.1869,4
78,99755,1,Denali National Park,,63.5436,-149.9867,4
79,99555,1,Aleknagik,,59.2697,-158.6199,1
80,99569,1,Clarks Point,,58.8173,-158.5299,1
81,99576,1,Dillingham,,59.0402,-158.5231,1
82,99580,1,Ekwok,,59.3628,-157.4782,4
83,99628,1,Manokotak,,59.0096,-158.9897,1
84,99636,1,New Stuyahok,,59.4882,-157.2905,1
85,99678,1,Togiak,,59.0619,-160.3764,1
86,99701,1,Fairbanks,,64.8378,-147.7164,4
87,99702,1,Eielson Afb,,64.6735,-147.0805,1
88,99703,1,Fort Wainwright,,64.8283,-147.6557,1
89,99705,1,North Pole,,64.7805,-147.3694,4
90,99706,1,Fairbanks,,64.8521,-147.9377,4
91,99707,1,Fairbanks,,64.8378,-147.7164,4
92,99708,1,Fairbanks,,64.9475,-147.8564,4
93,99709,1,Fairbanks,,64.8544,-147.8469,4
94,99710,1,Fairbanks,,64.8378,-147.7164,4
95,99711,1,Fairbanks,,64.8378,-147.7164,4
96,99712,1,Fairbanks,,64.9109,-147.5105,4
97,99714,1,Salcha,,64.5091,-146.953,1
98,99716,1,Two Rivers,,64.8746,-146.8982,4
99,99725,1,Ester,,64.871,-148.0949,4
100,99775,1,Fairbanks,,64.8591,-147.8267,4
101,99790,1,Fairbanks,,64.8378,-147.7164,1
102,99827,1,Haines,,59.2519,-135.542,4
103,99801,1,Juneau,,58.3628,-134.5294,4
104,99802,1,Juneau,,58.3019,-134.4197,4
105,99803,1,Juneau,,58.3019,-134.4197,4
106,99811,1,Juneau,,58.3019,-134.4197,4
107,99812,1,Juneau,,58.3271,-134.4742,4
108,99821,1,Auke Bay,,58.4494,-134.7003,4
109,99824,1,Douglas,,58.2756,-134.395,4
110,99850,1,Juneau,,58.3019,-134.4197,4
111,99556,1,Anchor Point,,59.8371,-151.7078,1
112,99568,1,Clam Gulch,,60.2311,-151.3936,4
113,99572,1,Cooper Landing,,60.4767,-149.8235,1
114,99603,1,Homer,,59.5374,-151.2356,1
115,99605,1,Hope,,60.8726,-149.4683,1
116,99610,1,Kasilof,,60.3164,-151.2896,4
117,99611,1,Kenai,,60.6145,-151.2546,4
118,99631,1,Moose Pass,,60.6148,-149.4056,1
119,99635,1,Nikiski,,60.7007,-151.2766,1
120,99639,1,Ninilchik,,60.0108,-151.6396,1
121,99663,1,Seldovia,,59.4495,-151.7009,4
122,99664,1,Seward,,60.1329,-149.3985,1
123,99669,1,Soldotna,,60.4818,-151.1358,1
124,99672,1,Sterling,,60.5136,-150.8532,4
125,99682,1,Tyonek,,61.0681,-151.1369,4
126,99901,1,Ketchikan,,55.372,-131.6832,4
127,99928,1,Ward Cove,,55.3954,-131.6754,4
128,99950,1,Ketchikan,,55.3422,-131.6478,4
129,99550,1,Port Lions,,57.8675,-152.8822,1
130,99608,1,Karluk,,57.5689,-154.4551,1
131,99615,1,Kodiak,,57.6036,-153.3751,1
132,99619,1,Kodiak,,57.79,-152.4072,1
133,99624,1,Larsen Bay,,57.54,-153.9786,1
134,99643,1,Old Harbor,,57.2028,-153.3039,1
135,99644,1,Ouzinkie,,57.9236,-152.5022,4
136,99697,1,Kodiak,,57.79,-152.4072,1
137,99554,1,Alakanuk,,62.6944,-164.6475,1
138,99563,1,Chevak,,61.529,-165.5905,1
139,99581,1,Emmonak,,62.7818,-164.5335,1
140,99585,1,Marshall,,61.9287,-162.268,1
141,99604,1,Hooper Bay,,61.527,-166.1151,1
142,99620,1,Kotlik,,63.0295,-163.5542,1
143,99632,1,Mountain Village,,62.1123,-163.6644,1
144,99650,1,Pilot Station,,61.9462,-162.8747,1
145,99657,1,Russian Mission,,61.7744,-161.3939,4
146,99658,1,Saint Marys,,62.1172,-163.2376,1
147,99662,1,Scammon Bay,,61.845,-165.5819,1
148,99666,1,Nunam Iqua,,62.5309,-164.8496,1
149,99548,1,Chignik Lake,,56.2448,-158.7578,1
150,99549,1,Port Heiden,,56.9643,-158.5664,4
151,99564,1,Chignik,,56.3016,-158.4157,1
152,99565,1,Chignik Lagoon,,58.2687,-156.6484,1
153,99579,1,Egegik,,58.2062,-157.3422,4
154,99606,1,Iliamna,,59.7525,-154.8236,1
155,99625,1,Levelock,,59.2905,-156.6503,1
156,99640,1,Nondalton,,59.9736,-154.8458,1
157,99647,1,Pedro Bay,,59.8681,-154.0757,1
158,99648,1,Perryville,,55.9453,-159.2593,1
159,99649,1,Pilot Point,,57.5642,-157.5792,1
160,99653,1,Port Alsworth,,60.2025,-154.3128,1
161,99623,1,Wasilla,,61.5463,-149.5901,1
162,99629,1,Wasilla,,61.5841,-149.4436,1
163,99645,1,Palmer,,61.6303,-148.9872,1
164,99652,1,Big Lake,,61.5214,-149.9544,1
165,99654,1,Wasilla,,61.5923,-149.3959,1
166,99667,1,Skwentna,,61.9903,-151.3978,1
167,99674,1,Sutton,,61.7327,-148.7837,1
168,99676,1,Talkeetna,,62.2605,-150.1101,1
169,99683,1,Trapper Creek,,62.3167,-150.2314,1
170,99687,1,Wasilla,,61.5313,-149.4784,1
171,99688,1,Willow,,61.8966,-150.0038,1
172,99694,1,Houston,,61.6303,-149.8181,1
173,99659,1,Saint Michael,,63.4776,-162.1091,1
174,99671,1,Stebbins,,63.5222,-162.2881,1
175,99684,1,Unalakleet,,63.8835,-160.7884,1
176,99739,1,Elim,,64.6217,-162.2604,1
177,99742,1,Gambell,,63.7766,-171.7017,1
178,99753,1,Koyuk,,64.9319,-161.1569,4
179,99762,1,Nome,,64.5011,-165.4064,1
180,99769,1,Savoonga,,63.6797,-170.4709,1
181,99771,1,Shaktoolik,,64.3537,-161.1932,1
182,99772,1,Shishmaref,,66.2306,-166.1373,1
183,99778,1,Teller,,65.2402,-166.3833,1
184,99783,1,Wales,,65.6092,-168.0875,1
185,99784,1,White Mountain,,64.6814,-163.4056,1
186,99785,1,Brevig Mission,,65.3342,-166.4786,1
187,99721,1,Anaktuvuk Pass,,68.1433,-151.7358,1
188,99723,1,Barrow,,71.2346,-156.8174,1
189,99734,1,Prudhoe Bay,,70.2922,-148.6694,1
190,99747,1,Kaktovik,,70.1319,-143.6239,1
191,99759,1,Point Lay,,69.7439,-163.0084,1
192,99766,1,Point Hope,,68.3486,-166.7347,1
193,99782,1,Wainwright,,70.6369,-160.0383,1
194,99789,1,Nuiqsut,,70.1927,-150.9971,1
195,99791,1,Atqasuk,,70.4947,-157.4411,1
196,99727,1,Buckland,,65.9789,-161.1262,1
197,99736,1,Deering,,66.0737,-162.714,1
198,99749,1,Kiana,,66.975,-160.4228,1
199,99750,1,Kivalina,,67.7269,-164.5333,1
200,99751,1,Kobuk,,66.9072,-156.8811,1
201,99752,1,Kotzebue,,66.8985,-162.5981,1
202,99761,1,Noatak,,67.5711,-162.9653,1
203,99763,1,Noorvik,,66.8364,-161.0441,1
204,99770,1,Selawik,,66.6039,-160.0069,1
205,99773,1,Shungnak,,66.8881,-157.1364,1
206,99786,1,Ambler,,67.0861,-157.8514,1
207,99903,1,Meyers Chuck,,55.7408,-132.2564,4
208,99918,1,Coffman Cove,,55.9524,-132.7503,4
209,99919,1,Thorne Bay,,55.6609,-132.5138,4
210,99921,1,Craig,,55.4732,-133.1171,4
211,99922,1,Hydaburg,,55.2087,-132.8259,4
212,99923,1,Hyder,,55.9169,-130.0247,1
213,99925,1,Klawock,,55.5526,-133.0555,4
214,99926,1,Metlakatla,,55.1215,-131.579,4
215,99927,1,Point Baker,,56.3528,-133.6211,4
216,99835,1,Sitka,,57.0514,-135.3166,4
217,99689,1,Yakutat,,59.812,-139.5505,1
218,99820,1,Angoon,,57.5005,-134.586,4
219,99825,1,Elfin Cove,,58.1944,-136.3433,4
220,99826,1,Gustavus,,58.4284,-135.7615,4
221,99829,1,Hoonah,,58.0977,-135.4316,4
222,99832,1,Pelican,,57.9608,-136.2275,4
223,99840,1,Skagway,,59.4685,-135.3018,1
224,99841,1,Tenakee Springs,,57.7808,-135.2189,4
225,99731,1,Fort Greely,,63.952,-146.451,1
226,99732,1,Chicken,,64.0733,-141.9361,1
227,99737,1,Delta Junction,,64.0378,-145.7322,1
228,99738,1,Eagle,,64.7881,-141.2,1
229,99764,1,Northway,,62.9617,-141.9372,1
230,99776,1,Tanacross,,63.3853,-143.3464,1
231,99780,1,Tok,,63.3367,-142.9856,1
232,99566,1,Chitina,,61.5156,-144.4396,1
233,99573,1,Copper Center,,61.977,-145.3297,1
234,99574,1,Cordova,,60.5362,-145.7534,1
235,99586,1,Gakona,,62.3014,-145.3027,1
236,99588,1,Glennallen,,62.1039,-145.6617,1
237,99677,1,Tatitlek,,60.8906,-146.6703,1
238,99686,1,Valdez,,61.101,-146.9,1
239,99693,1,Whittier,,60.7734,-148.6839,1
240,99830,1,Kake,,56.9736,-133.936,4
241,99833,1,Petersburg,,56.8271,-133.1607,4
242,99836,1,Port Alexander,,56.2497,-134.6444,4
243,99929,1,Wrangell,,56.4335,-132.3529,4
244,99558,1,Anvik,,62.6561,-160.2067,1
245,99590,1,Grayling,,62.9036,-160.0647,1
246,99602,1,Holy Cross,,62.1926,-159.8251,1
247,99627,1,Mc Grath,,62.9457,-155.5712,1
248,99665,1,Shageluk,,62.6822,-159.5619,1
249,99675,1,Takotna,,62.9886,-156.0642,1
250,99691,1,Nikolai,,63.0133,-154.375,1
251,99720,1,Allakaket,,66.5656,-152.6456,1
252,99722,1,Arctic Village,,68.1269,-145.5378,1
253,99724,1,Beaver,,66.3594,-147.3964,4
254,99726,1,Bettles Field,,65.2264,-151.0251,1
255,99730,1,Central,,65.4681,-144.7489,1
256,99733,1,Circle,,65.8245,-144.0826,1
257,99740,1,Fort Yukon,,66.5647,-145.2739,1
258,99741,1,Galena,,64.7333,-156.9275,1
259,99745,1,Hughes,,66.0382,-154.2644,4
260,99746,1,Huslia,,65.6899,-156.292,4
261,99748,1,Kaltag,,64.3305,-158.7243,1
262,99754,1,Koyukuk,,64.8803,-157.7008,4
263,99756,1,Manley Hot Springs,,65.0011,-150.6339,4
264,99757,1,Lake Minchumina,,63.8828,-152.3122,4
265,99758,1,Minto,,65.0584,-149.6912,1
266,99760,1,Nenana,,64.5577,-149.0867,1
267,99765,1,Nulato,,64.7194,-158.1031,1
268,99767,1,Rampart,,65.509,-150.1619,1
269,99768,1,Ruby,,64.7201,-155.5039,1
270,99774,1,Stevens Village,,66.0064,-149.0908,4
271,99777,1,Tanana,,65.1719,-152.0789,1
272,99781,1,Venetie,,67.0104,-146.4137,1
273,99788,1,Chalkyitsik,,66.6544,-143.7222,1
274,36003,2,Autaugaville,,32.4625,-86.7149,4
275,36006,2,Billingsley,,32.6596,-86.7178,4
276,36008,2,Booth,,32.5016,-86.5727,4
277,36051,2,Marbury,,32.6841,-86.4946,4
278,36066,2,Prattville,,32.4787,-86.43,4
279,36067,2,Prattville,,32.4715,-86.4831,4
280,36068,2,Prattville,,32.464,-86.4597,4
281,36749,2,Jones,,32.5104,-86.8138,4
282,36507,2,Bay Minette,,30.8635,-87.7644,4
283,36511,2,Bon Secour,,30.3128,-87.7431,4
284,36526,2,Daphne,,30.6197,-87.8895,4
285,36527,2,Spanish Fort,,30.6959,-87.8867,4
286,36530,2,Elberta,,30.3942,-87.589,4
287,36532,2,Fairhope,,30.5012,-87.8835,4
288,36533,2,Fairhope,,30.4841,-87.8606,4
289,36535,2,Foley,,30.4007,-87.6857,4
290,36536,2,Foley,,30.4222,-87.7064,4
291,36542,2,Gulf Shores,,30.2717,-87.7589,4
292,36547,2,Gulf Shores,,30.246,-87.7008,4
293,36549,2,Lillian,,30.3972,-87.4745,4
294,36550,2,Little River,,31.2246,-87.7548,4
295,36551,2,Loxley,,30.618,-87.7562,4
296,36555,2,Magnolia Springs,,30.3996,-87.7761,4
297,36559,2,Montrose,,30.5623,-87.9005,4
298,36561,2,Orange Beach,,30.281,-87.5815,4
299,36562,2,Perdido,,31.0403,-87.6667,4
300,36564,2,Point Clear,,30.4741,-87.9192,4
301,36567,2,Robertsdale,,30.5616,-87.6373,4
302,36574,2,Seminole,,30.5048,-87.4659,4
303,36576,2,Silverhill,,30.5222,-87.7457,4
304,36577,2,Spanish Fort,,30.6749,-87.9153,4
305,36578,2,Stapleton,,30.7476,-87.7787,4
306,36579,2,Stockton,,31.0129,-87.8633,4
307,36580,2,Summerdale,,30.4752,-87.6992,4
308,36016,2,Clayton,,31.8874,-85.4509,4
309,36017,2,Clio,,31.6852,-85.5904,4
310,36027,2,Eufaula,,31.9051,-85.1656,4
311,36048,2,Louisville,,31.7943,-85.5581,4
312,36072,2,Eufaula,,31.8913,-85.1455,4
313,35034,2,Brent,,32.9357,-87.2114,4
314,35035,2,Brierfield,,33.0427,-86.9517,4
315,35042,2,Centreville,,32.9503,-87.1192,4
316,35074,2,Green Pond,,33.2251,-87.1264,4
317,35184,2,West Blocton,,33.1424,-87.1369,4
318,35188,2,Woodstock,,33.2068,-87.15,4
319,36792,2,Randolph,,32.8888,-86.907,4
320,36793,2,Lawley,,32.8646,-86.9567,4
321,35013,2,Allgood,,33.9222,-86.4493,4
322,35031,2,Blountsville,,34.0929,-86.5686,4
323,35049,2,Cleveland,,33.9778,-86.5598,4
324,35079,2,Hayden,,33.9534,-86.7455,4
325,35097,2,Locust Fork,,33.905,-86.6261,4
326,35121,2,Oneonta,,33.9259,-86.4741,4
327,35133,2,Remlap,,33.8168,-86.6008,4
328,36029,2,Fitzpatrick,,32.2165,-85.8888,4
329,36053,2,Midway,,32.0955,-85.5315,4
330,36061,2,Perote,,32.0928,-85.7046,4
331,36089,2,Union Springs,,32.1443,-85.7149,4
332,36015,2,Chapman,,31.6427,-86.7343,4
333,36030,2,Forest Home,,31.8501,-86.8372,4
334,36033,2,Georgiana,,31.6287,-86.734,4
335,36037,2,Greenville,,31.81,-86.6229,4
336,36456,2,Mc Kenzie,,31.545,-86.7356,1
337,36201,2,Anniston,,33.6539,-85.8382,4
338,36202,2,Anniston,,33.7622,-85.8378,4
339,36203,2,Oxford,,33.5815,-85.8328,4
340,36204,2,Anniston,,33.7622,-85.8378,4
341,36205,2,Anniston,,33.7358,-85.7933,4
342,36206,2,Anniston,,33.7191,-85.8389,4
343,36207,2,Anniston,,33.6803,-85.7137,4
344,36250,2,Alexandria,,33.7808,-85.8924,4
345,36253,2,Bynum,,33.7622,-85.8378,4
346,36254,2,Choccolocco,,33.6573,-85.6991,4
347,36257,2,De Armanville,,33.7622,-85.8378,1
348,36260,2,Eastaboga,,33.6031,-85.9608,4
349,36265,2,Jacksonville,,33.831,-85.7752,4
350,36271,2,Ohatchee,,33.7788,-86.0254,4
351,36272,2,Piedmont,,33.8389,-85.646,4
352,36277,2,Weaver,,33.7563,-85.8107,4
353,36279,2,Wellington,,33.8226,-85.8927,4
354,36852,2,Cusseta,,32.7831,-85.2756,4
355,36854,2,Valley,,32.8113,-85.1749,4
356,36855,2,Five Points,,33.0424,-85.3243,4
357,36862,2,Lafayette,,32.9252,-85.4426,4
358,36863,2,Lanett,,32.8616,-85.2161,4
359,35959,2,Cedar Bluff,,34.2417,-85.6026,4
360,35960,2,Centre,,34.1116,-85.6092,4
361,35973,2,Gaylesville,,34.3573,-85.5589,4
362,35983,2,Leesburg,,34.1911,-85.7705,4
363,36275,2,Spring Garden,,33.9778,-85.5521,4
364,35045,2,Clanton,,32.8355,-86.6425,4
365,35046,2,Clanton,,32.9229,-86.545,4
366,35085,2,Jemison,,32.9805,-86.7181,4
367,35171,2,Thorsby,,32.9157,-86.7158,4
368,36091,2,Verbena,,32.7499,-86.5114,4
369,36750,2,Maplesville,,32.8045,-86.8717,4
370,36790,2,Stanton,,32.7332,-86.8963,4
371,36904,2,Butler,,32.0829,-88.2064,4
372,36908,2,Gilbertown,,31.8666,-88.3265,4
373,36910,2,Jachin,,32.2299,-88.1684,4
374,36912,2,Lisman,,32.2177,-88.3234,4
375,36913,2,Melvin,,31.9304,-88.4589,4
376,36915,2,Needham,,31.9879,-88.3367,4
377,36916,2,Pennington,,32.2094,-88.049,4
378,36919,2,Silas,,31.7668,-88.3091,4
379,36921,2,Toxey,,31.9155,-88.151,4
380,36922,2,Ward,,32.3038,-88.1476,4
381,36436,2,Dickinson,,31.7635,-87.7106,4
382,36446,2,Fulton,,31.7925,-87.72,4
383,36451,2,Grove Hill,,31.7088,-87.7772,4
384,36482,2,Whatley,,31.6395,-87.6565,4
385,36524,2,Coffeeville,,31.7843,-88.0715,4
386,36540,2,Gainestown,,31.4258,-87.6822,4
387,36545,2,Jackson,,31.5131,-87.8672,4
388,36727,2,Campbell,,31.9213,-88.008,4
389,36784,2,Thomasville,,31.9067,-87.7598,4
390,35082,2,Hollins,,33.1162,-86.1386,4
391,36251,2,Ashland,,33.2474,-85.829,4
392,36255,2,Cragford,,33.2171,-85.7108,4
393,36258,2,Delta,,33.4573,-85.6793,4
394,36266,2,Lineville,,33.3286,-85.7346,4
395,36267,2,Millerville,,33.1915,-85.9258,4
396,36261,2,Edwardsville,,33.7066,-85.5099,4
397,36262,2,Fruithurst,,33.7717,-85.4381,4
398,36264,2,Heflin,,33.6115,-85.5885,4
399,36269,2,Muscadine,,33.7529,-85.3789,4
400,36273,2,Ranburne,,33.5616,-85.3786,4
401,36323,2,Elba,,31.4137,-86.0777,4
402,36330,2,Enterprise,,31.3408,-85.8421,4
403,36331,2,Enterprise,,31.2978,-85.9036,4
404,36346,2,Jack,,31.5652,-85.971,4
405,36351,2,New Brockton,,31.369,-85.9404,4
406,36453,2,Kinston,,31.1926,-86.1514,4
407,35616,2,Cherokee,,34.7442,-87.9724,4
408,35646,2,Leighton,,34.711,-87.5221,4
409,35660,2,Sheffield,,34.7578,-87.6971,4
410,35661,2,Muscle Shoals,,34.7561,-87.6304,4
411,35662,2,Muscle Shoals,,34.7448,-87.6675,4
412,35674,2,Tuscumbia,,34.6874,-87.6833,4
413,36401,2,Evergreen,,31.458,-86.9258,4
414,36429,2,Brooklyn,,31.2627,-86.7711,4
415,36432,2,Castleberry,,31.2991,-87.0225,4
416,36454,2,Lenox,,31.3366,-87.1855,4
417,36473,2,Range,,31.3058,-87.2137,4
418,36475,2,Repton,,31.4256,-87.172,4
419,35072,2,Goodwater,,33.0746,-86.0781,4
420,35089,2,Kellyton,,32.9791,-86.0484,4
421,35136,2,Rockford,,32.878,-86.24,4
422,35183,2,Weogufka,,33.0238,-86.3042,4
423,36026,2,Equality,,32.8139,-86.1051,4
424,36038,2,Gantt,,31.4068,-86.4841,4
425,36420,2,Andalusia,,31.2971,-86.4905,4
426,36442,2,Florala,,31.0172,-86.3385,4
427,36455,2,Lockhart,,31.0105,-86.3497,4
428,36467,2,Opp,,31.2799,-86.2571,4
429,36474,2,Red Level,,31.4399,-86.6121,4
430,36476,2,River Falls,,31.3533,-86.541,4
431,36483,2,Wing,,31.0223,-86.6293,4
432,36009,2,Brantley,,31.571,-86.2743,4
433,36028,2,Dozier,,31.5066,-86.3663,4
434,36034,2,Glenwood,,31.6641,-86.171,4
435,36041,2,Highland Home,,31.9283,-86.2971,4
436,36042,2,Honoraville,,31.8784,-86.3981,4
437,36049,2,Luverne,,31.7074,-86.2566,4
438,36062,2,Petrey,,31.8488,-86.2077,4
439,36071,2,Rutledge,,31.7062,-86.3715,4
440,35019,2,Baileyton,,34.2683,-86.6213,4
441,35033,2,Bremen,,33.9737,-87.0043,4
442,35053,2,Crane Hill,,34.0821,-87.0484,4
443,35055,2,Cullman,,34.1761,-86.8298,4
444,35056,2,Cullman,,34.1748,-86.8436,4
445,35057,2,Cullman,,34.0878,-86.9447,4
446,35058,2,Cullman,,34.2098,-86.752,4
447,35070,2,Garden City,,34.0058,-86.7499,4
448,35077,2,Hanceville,,34.0516,-86.7848,4
449,35083,2,Holly Pond,,34.1901,-86.6174,4
450,35087,2,Joppa,,34.2837,-86.5519,4
451,35098,2,Logan,,34.1377,-87.0266,4
452,35179,2,Vinemont,,34.2621,-86.9125,4
453,36311,2,Ariton,,31.583,-85.7077,4
454,36317,2,Clopton,,31.6446,-85.3911,4
455,36322,2,Daleville,,31.2811,-85.7305,4
456,36350,2,Midland City,,31.3191,-85.4938,4
457,36352,2,Newton,,31.3311,-85.5992,4
458,36360,2,Ozark,,31.4391,-85.6436,4
459,36361,2,Ozark,,31.4591,-85.6405,4
460,36362,2,Fort Rucker,,31.348,-85.7214,4
461,36371,2,Pinckard,,31.3074,-85.5263,4
462,36374,2,Skipperville,,31.5748,-85.537,4
463,36701,2,Selma,,32.4197,-87.0245,4
464,36702,2,Selma,,32.4074,-87.0211,4
465,36703,2,Selma,,32.4156,-87.0135,4
466,36758,2,Plantersville,,32.6176,-86.9475,4
467,36759,2,Marion Junction,,32.4266,-87.2702,4
468,36761,2,Minter,,32.1899,-87.0633,4
469,36767,2,Orrville,,32.2949,-87.2214,4
470,36773,2,Safford,,32.3002,-87.3693,4
471,36775,2,Sardis,,32.2844,-86.992,4
472,36785,2,Tyler,,32.3239,-86.8646,4
473,35961,2,Collinsville,,34.268,-85.862,4
474,35962,2,Crossville,,34.2588,-86.0306,4
475,35963,2,Dawson,,34.3568,-85.9292,4
476,35967,2,Fort Payne,,34.4368,-85.7124,4
477,35968,2,Fort Payne,,34.4898,-85.7657,4
478,35971,2,Fyffe,,34.4373,-85.9288,4
479,35974,2,Geraldine,,34.3592,-86.024,4
480,35975,2,Groveoak,,34.4359,-86.04,1
481,35978,2,Henagar,,34.6186,-85.7274,4
482,35981,2,Ider,,34.7351,-85.6416,4
483,35984,2,Mentone,,34.5872,-85.5777,4
484,35986,2,Rainsville,,34.4989,-85.8446,4
485,35988,2,Sylvania,,34.559,-85.7921,4
486,35989,2,Valley Head,,34.5697,-85.6272,4
487,36020,2,Coosada,,32.5056,-86.3322,4
488,36022,2,Deatsville,,32.6082,-86.3958,4
489,36024,2,Eclectic,,32.6542,-86.0316,4
490,36025,2,Elmore,,32.5454,-86.3161,4
491,36045,2,Kent,,32.619,-85.9486,4
492,36054,2,Millbrook,,32.4995,-86.3641,4
493,36078,2,Tallassee,,32.551,-85.8978,4
494,36080,2,Titus,,32.69,-86.2393,4
495,36092,2,Wetumpka,,32.5927,-86.2153,4
496,36093,2,Wetumpka,,32.5622,-86.0994,4
497,36426,2,Brewton,,31.1294,-87.0961,4
498,36427,2,Brewton,,31.1052,-87.0722,4
499,36441,2,Flomaton,,31.0402,-87.2664,4
500,36502,2,Atmore,,31.0572,-87.4873,4
501,36503,2,Atmore,,31.0238,-87.4939,4
502,36504,2,Atmore,,31.0158,-87.4972,4
503,36543,2,Huxford,,31.2202,-87.4619,4
504,35901,2,Gadsden,,34.048,-85.9246,4
505,35902,2,Gadsden,,34.0143,-86.0066,4
506,35903,2,Gadsden,,33.9845,-85.9077,4
507,35904,2,Gadsden,,34.0217,-86.0495,4
508,35905,2,Gadsden,,33.9352,-85.9576,4
509,35906,2,Rainbow City,,33.9318,-86.0898,4
510,35907,2,Gadsden,,33.8979,-86.0245,4
511,35952,2,Altoona,,34.071,-86.2096,4
512,35954,2,Attalla,,34.0296,-86.0967,4
513,35972,2,Gallant,,33.9976,-86.2346,4
514,35990,2,Walnut Grove,,34.0657,-86.3064,4
515,35542,2,Bankston,,33.7008,-87.6897,4
516,35545,2,Belk,,33.6476,-87.9314,4
517,35546,2,Berry,,33.6945,-87.6226,4
518,35555,2,Fayette,,33.6974,-87.8346,4
519,35559,2,Glen Allen,,33.9151,-87.7417,4
520,35571,2,Hodges,,34.3417,-87.959,4
521,35581,2,Phil Campbell,,34.347,-87.7154,4
522,35582,2,Red Bay,,34.4513,-88.1129,4
523,35585,2,Spruce Pine,,34.4246,-87.8145,4
524,35593,2,Vina,,34.3712,-88.0774,4
525,35653,2,Russellville,,34.5066,-87.7257,4
526,35654,2,Russellville,,34.4675,-87.6478,4
527,36313,2,Bellwood,,31.1732,-85.7933,4
528,36314,2,Black,,31.0132,-85.7456,4
529,36316,2,Chancellor,,31.1767,-85.8135,4
530,36318,2,Coffee Springs,,31.1388,-85.9182,4
531,36340,2,Geneva,,31.0414,-85.8847,4
532,36344,2,Hartford,,31.086,-85.7192,4
533,36349,2,Malvern,,31.1212,-85.5592,4
534,36375,2,Slocomb,,31.0956,-85.583,4
535,36477,2,Samson,,31.1049,-86.0674,4
536,35443,2,Boligee,,32.7746,-88.0267,4
537,35448,2,Clinton,,32.9137,-87.9925,4
538,35462,2,Eutaw,,32.8889,-87.9303,4
539,35469,2,Knoxville,,32.9824,-87.7919,4
540,35491,2,West Greene,,32.9237,-88.0853,4
541,36740,2,Forkland,,32.6108,-87.8441,4
542,35441,2,Akron,,32.8553,-87.7219,4
543,35474,2,Moundville,,32.9108,-87.5935,4
544,36742,2,Gallion,,32.5298,-87.6985,4
545,36744,2,Greensboro,,32.7167,-87.5905,4
546,36765,2,Newbern,,32.5515,-87.5615,4
547,36776,2,Sawyerville,,32.7578,-87.7402,4
548,36310,2,Abbeville,,31.5755,-85.279,4
549,36345,2,Headland,,31.3534,-85.3323,4
550,36353,2,Newville,,31.4403,-85.3287,4
551,36373,2,Shorterville,,31.501,-85.1135,4
552,36301,2,Dothan,,31.1481,-85.3718,4
553,36302,2,Dothan,,31.2232,-85.3905,4
554,36303,2,Dothan,,31.2668,-85.3971,4
555,36304,2,Dothan,,31.156,-85.3559,4
556,36305,2,Dothan,,31.2197,-85.4828,4
557,36312,2,Ashford,,31.1888,-85.2535,4
558,36319,2,Columbia,,31.3352,-85.1455,4
559,36320,2,Cottonwood,,31.0507,-85.3154,4
560,36321,2,Cowarts,,31.2025,-85.3014,4
561,36343,2,Gordon,,31.1002,-85.1234,4
562,36370,2,Pansey,,31.1403,-85.1573,4
563,36376,2,Webb,,31.2656,-85.2544,4
564,35740,2,Bridgeport,,34.9446,-85.7277,4
565,35744,2,Dutton,,34.6046,-85.9067,4
566,35745,2,Estillfork,,34.913,-86.1716,4
567,35746,2,Fackler,,34.8259,-85.9846,4
568,35751,2,Hollytree,,34.7955,-86.2743,4
569,35752,2,Hollywood,,34.7304,-85.9532,4
570,35755,2,Langston,,34.5001,-86.1353,4
571,35764,2,Paint Rock,,34.7031,-86.3068,4
572,35765,2,Pisgah,,34.6809,-85.8478,4
573,35766,2,Princeton,,34.8713,-86.2513,4
574,35768,2,Scottsboro,,34.7507,-86.1422,4
575,35769,2,Scottsboro,,34.618,-86.0562,4
576,35771,2,Section,,34.5433,-85.994,4
577,35772,2,Stevenson,,34.8769,-85.8508,4
578,35774,2,Trenton,,34.7632,-86.2295,4
579,35776,2,Woodville,,34.6689,-86.2296,4
580,35958,2,Bryant,,34.945,-85.6324,4
581,35966,2,Flat Rock,,34.8076,-85.7084,4
582,35979,2,Higdon,,34.8391,-85.6196,4
583,35005,2,Adamsville,,33.5884,-86.9597,4
584,35006,2,Adger,,33.4343,-87.1675,4
585,35015,2,Alton,,33.5793,-86.6375,4
586,35020,2,Bessemer,,33.409,-86.9475,4
587,35021,2,Bessemer,,33.5446,-86.9292,4
588,35022,2,Bessemer,,33.3224,-86.9657,4
589,35023,2,Bessemer,,33.468,-87.0924,4
590,35036,2,Brookside,,33.6379,-86.9167,4
591,35048,2,Clay,,33.7026,-86.5997,4
592,35060,2,Docena,,33.5589,-86.9294,4
593,35061,2,Dolomite,,33.4654,-86.9564,4
594,35064,2,Fairfield,,33.4735,-86.9183,4
595,35068,2,Fultondale,,33.6017,-86.8265,4
596,35071,2,Gardendale,,33.7189,-86.8225,4
597,35073,2,Graysville,,33.6539,-86.9803,4
598,35091,2,Kimberly,,33.7684,-86.8084,4
599,35094,2,Leeds,,33.5283,-86.5748,4
600,35111,2,Mc Calla,,33.2845,-87.1024,1
601,35116,2,Morris,,33.7392,-86.7726,4
602,35117,2,Mount Olive,,33.6768,-86.8717,4
603,35118,2,Mulga,,33.5363,-87.051,4
604,35119,2,New Castle,,33.649,-86.7686,4
605,35123,2,Palmerdale,,33.7387,-86.6461,4
606,35126,2,Pinson,,33.7299,-86.6451,4
607,35127,2,Pleasant Grove,,33.4883,-86.9766,4
608,35139,2,Sayre,,33.7111,-86.9759,4
609,35142,2,Shannon,,33.4069,-86.8735,4
610,35172,2,Trafford,,33.819,-86.7434,4
611,35173,2,Trussville,,33.6339,-86.5981,4
612,35180,2,Warrior,,33.8529,-86.8198,4
613,35181,2,Watson,,33.5446,-86.9292,4
614,35201,2,Birmingham,,33.5207,-86.8025,4
615,35202,2,Birmingham,,33.5207,-86.8025,4
616,35203,2,Birmingham,,33.521,-86.8066,4
617,35204,2,Birmingham,,33.5179,-86.8372,4
618,35205,2,Birmingham,,33.4951,-86.8059,4
619,35206,2,Birmingham,,33.5678,-86.7199,4
620,35207,2,Birmingham,,33.5594,-86.8153,4
621,35208,2,Birmingham,,33.4977,-86.8799,4
622,35209,2,Birmingham,,33.4653,-86.8082,4
623,35210,2,Birmingham,,33.5452,-86.6655,4
624,35211,2,Birmingham,,33.4816,-86.859,4
625,35212,2,Birmingham,,33.5409,-86.7495,4
626,35213,2,Birmingham,,33.5066,-86.7428,4
627,35214,2,Birmingham,,33.5554,-86.887,4
628,35215,2,Birmingham,,33.6493,-86.7057,4
629,35216,2,Birmingham,,33.4188,-86.7867,4
630,35217,2,Birmingham,,33.5887,-86.765,4
631,35218,2,Birmingham,,33.506,-86.893,4
632,35219,2,Birmingham,,33.5446,-86.9292,4
633,35220,2,Birmingham,,33.5446,-86.9292,4
634,35221,2,Birmingham,,33.4523,-86.8935,4
635,35222,2,Birmingham,,33.5219,-86.7666,4
636,35223,2,Birmingham,,33.4995,-86.7268,4
637,35224,2,Birmingham,,33.5191,-86.9342,4
638,35226,2,Birmingham,,33.3967,-86.8346,4
639,35228,2,Birmingham,,33.4558,-86.9118,4
640,35229,2,Birmingham,,33.4629,-86.7904,4
641,35231,2,Birmingham,,33.5446,-86.9292,4
642,35232,2,Birmingham,,33.5446,-86.9292,4
643,35233,2,Birmingham,,33.5062,-86.8003,4
644,35234,2,Birmingham,,33.5378,-86.8068,4
645,35235,2,Birmingham,,33.6328,-86.6493,4
646,35236,2,Birmingham,,33.5446,-86.9292,4
647,35237,2,Birmingham,,33.5207,-86.8025,4
648,35238,2,Birmingham,,33.5446,-86.9292,4
649,35243,2,Birmingham,,33.4459,-86.7502,4
650,35244,2,Birmingham,,33.3538,-86.8254,4
651,35246,2,Birmingham,,33.5207,-86.8025,4
652,35249,2,Birmingham,,33.5207,-86.8025,4
653,35253,2,Birmingham,,33.5446,-86.9292,4
654,35254,2,Birmingham,,33.5446,-86.9292,4
655,35255,2,Birmingham,,33.5446,-86.9292,4
656,35259,2,Birmingham,,33.5446,-86.9292,4
657,35260,2,Birmingham,,33.5446,-86.9292,4
658,35261,2,Birmingham,,33.5446,-86.9292,4
659,35266,2,Birmingham,,33.3729,-86.8531,4
660,35270,2,Birmingham,,33.5206,-86.8025,""
661,35282,2,Birmingham,,33.5446,-86.9292,4
662,35283,2,Birmingham,,33.5207,-86.8025,4
663,35285,2,Birmingham,,33.5446,-86.9292,4
664,35287,2,Birmingham,,33.5207,-86.8025,4
665,35288,2,Birmingham,,33.4458,-86.9285,4
666,35290,2,Birmingham,,33.5446,-86.9292,4
667,35291,2,Birmingham,,33.5207,-86.8025,4
668,35292,2,Birmingham,,33.5207,-86.8025,4
669,35293,2,Birmingham,,33.5446,-86.9292,4
670,35294,2,Birmingham,,33.5446,-86.9292,4
671,35295,2,Birmingham,,33.5207,-86.8025,4
672,35296,2,Birmingham,,33.5446,-86.9292,4
673,35297,2,Birmingham,,33.5446,-86.9292,4
674,35298,2,Birmingham,,33.5446,-86.9292,4
675,35544,2,Beaverton,,33.9429,-88.0157,4
676,35552,2,Detroit,,34.0282,-88.17,4
677,35574,2,Kennedy,,33.6153,-87.9948,4
678,35576,2,Millport,,33.5401,-88.2,4
679,35586,2,Sulligent,,33.8549,-88.1508,4
680,35592,2,Vernon,,33.7613,-88.0979,4
681,35610,2,Anderson,,34.9424,-87.2734,4
682,35617,2,Cloverdale,,34.9387,-87.7714,4
683,35630,2,Florence,,34.8305,-87.656,4
684,35631,2,Florence,,34.87,-87.7069,4
685,35632,2,Florence,,34.87,-87.7069,4
686,35633,2,Florence,,34.8825,-87.7398,4
687,35634,2,Florence,,34.9186,-87.6136,4
688,35645,2,Killen,,34.9016,-87.5082,4
689,35648,2,Lexington,,34.9559,-87.3935,4
690,35652,2,Rogersville,,34.8495,-87.3237,4
691,35677,2,Waterloo,,34.9357,-87.9624,4
692,35618,2,Courtland,,34.6719,-87.3143,4
693,35643,2,Hillsboro,,34.6476,-87.1804,4
694,35650,2,Moulton,,34.5058,-87.2224,4
695,35651,2,Mount Hope,,34.4793,-87.4769,4
696,35672,2,Town Creek,,34.6491,-87.4262,4
697,36801,2,Opelika,,32.6454,-85.3783,4
698,36802,2,Opelika,,32.5782,-85.349,4
699,36803,2,Opelika,,32.6454,-85.3783,4
700,36804,2,Opelika,,32.5768,-85.312,4
701,36830,2,Auburn,,32.5475,-85.4682,4
702,36831,2,Auburn,,32.6099,-85.4808,4
703,36832,2,Auburn,,32.592,-85.5189,4
704,36849,2,Auburn University,,32.6024,-85.4873,4
705,36865,2,Loachapoka,,32.6043,-85.5933,4
706,36872,2,Valley,,32.5782,-85.349,4
707,36874,2,Salem,,32.6212,-85.184,4
708,36877,2,Smiths Station,,32.5401,-85.0985,4
709,36879,2,Waverly,,32.7632,-85.5144,4
710,35611,2,Athens,,34.8036,-86.9707,4
711,35612,2,Athens,,34.7749,-87.0305,4
712,35613,2,Athens,,34.8317,-86.8867,4
713,35614,2,Athens,,34.8474,-87.0607,4
714,35615,2,Belle Mina,,34.6568,-86.8792,4
715,35620,2,Elkmont,,34.929,-86.9739,4
716,35647,2,Lester,,34.9596,-87.1006,4
717,35649,2,Mooresville,,34.6259,-86.8746,4
718,35671,2,Tanner,,34.6796,-86.9625,4
719,35739,2,Ardmore,,34.9804,-86.8346,4
720,35742,2,Capshaw,,34.7731,-86.7928,4
721,36032,2,Fort Deposit,,31.996,-86.5761,4
722,36040,2,Hayneville,,32.1957,-86.655,4
723,36047,2,Letohatchee,,32.0862,-86.488,4
724,36752,2,Lowndesboro,,32.2943,-86.6471,4
725,36031,2,Fort Davis,,32.2507,-85.7524,4
726,36039,2,Hardaway,,32.3129,-85.8838,4
727,36075,2,Shorter,,32.3836,-85.9162,4
728,36083,2,Tuskegee,,32.4316,-85.6861,4
729,36087,2,Tuskegee Institute,,32.4093,-85.738,1
730,36088,2,Tuskegee Institute,,32.4145,-85.7253,1
731,36866,2,Notasulga,,32.5437,-85.6871,4
732,35741,2,Brownsboro,,34.7167,-86.4687,4
733,35748,2,Gurley,,34.714,-86.394,4
734,35749,2,Harvest,,34.8273,-86.7499,4
735,35750,2,Hazel Green,,34.9496,-86.5935,4
736,35756,2,Madison,,34.643,-86.8168,4
737,35757,2,Madison,,34.7782,-86.7442,4
738,35758,2,Madison,,34.7108,-86.7425,4
739,35759,2,Meridianville,,34.8618,-86.5789,4
740,35760,2,New Hope,,34.5494,-86.3961,4
741,35761,2,New Market,,34.9,-86.4487,4
742,35762,2,Normal,,34.789,-86.5719,4
743,35763,2,Owens Cross Roads,,34.6215,-86.4644,4
744,35767,2,Ryland,,34.7698,-86.4808,4
745,35773,2,Toney,,34.9116,-86.7,4
746,35801,2,Huntsville,,34.7269,-86.5673,4
747,35802,2,Huntsville,,34.6679,-86.5603,4
748,35803,2,Huntsville,,34.6205,-86.551,4
749,35804,2,Huntsville,,34.7284,-86.5853,4
750,35805,2,Huntsville,,34.7059,-86.6165,4
751,35806,2,Huntsville,,34.7448,-86.6704,4
752,35807,2,Huntsville,,34.734,-86.5229,4
753,35808,2,Huntsville,,34.6845,-86.6538,4
754,35809,2,Huntsville,,34.734,-86.5229,4
755,35810,2,Huntsville,,34.7784,-86.6091,4
756,35811,2,Huntsville,,34.7789,-86.5438,4
757,35812,2,Huntsville,,34.734,-86.5229,4
758,35813,2,Huntsville,,34.734,-86.5229,4
759,35814,2,Huntsville,,34.734,-86.5229,4
760,35815,2,Huntsville,,34.734,-86.5229,4
761,35816,2,Huntsville,,34.7389,-86.6249,4
762,35824,2,Huntsville,,34.6583,-86.7295,4
763,35893,2,Huntsville,,34.7304,-86.5861,4
764,35894,2,Huntsville,,34.734,-86.5229,4
765,35895,2,Huntsville,,34.7304,-86.5861,4
766,35896,2,Huntsville,,34.7543,-86.6546,4
767,35897,2,Huntsville,,34.734,-86.5229,4
768,35898,2,Huntsville,,34.734,-86.5229,4
769,35899,2,Huntsville,,34.7339,-86.6456,4
770,36732,2,Demopolis,,32.4908,-87.8397,4
771,36736,2,Dixons Mills,,32.0672,-87.7454,4
772,36738,2,Faunsdale,,32.4233,-87.6181,4
773,36745,2,Jefferson,,32.414,-87.8986,4
774,36748,2,Linden,,32.3053,-87.7954,4
775,36754,2,Magnolia,,32.1419,-87.6998,4
776,36763,2,Myrtlewood,,32.2516,-87.9494,4
777,36764,2,Nanafalia,,32.1129,-87.9881,4
778,36782,2,Sweet Water,,32.0773,-87.9228,4
779,36783,2,Thomaston,,32.2538,-87.5974,4
780,35543,2,Bear Creek,,34.1649,-87.7396,4
781,35548,2,Brilliant,,34.0377,-87.7563,4
782,35563,2,Guin,,33.9676,-87.9024,4
783,35564,2,Hackleburg,,34.2678,-87.8608,4
784,35570,2,Hamilton,,34.1534,-88.0085,4
785,35594,2,Winfield,,33.9303,-87.7972,4
786,35016,2,Arab,,34.3283,-86.4896,4
787,35175,2,Union Grove,,34.4093,-86.4628,4
788,35747,2,Grant,,34.4959,-86.259,4
789,35950,2,Albertville,,34.2739,-86.2064,4
790,35951,2,Albertville,,34.3223,-86.1935,4
791,35956,2,Boaz,,34.1437,-86.148,4
792,35957,2,Boaz,,34.1921,-86.1941,4
793,35964,2,Douglas,,34.1737,-86.3236,4
794,35976,2,Guntersville,,34.3449,-86.2752,4
795,35980,2,Horton,,34.19,-86.3173,4
796,36421,2,Andalusia,,31.3247,-86.5067,4
797,36505,2,Axis,,30.9394,-88.0159,4
798,36509,2,Bayou La Batre,,30.408,-88.2507,4
799,36512,2,Bucks,,31.0105,-88.0242,4
800,36521,2,Chunchula,,30.9912,-88.1311,4
801,36522,2,Citronelle,,31.0425,-88.2549,4
802,36523,2,Coden,,30.3903,-88.2076,4
803,36525,2,Creola,,30.9013,-88.0174,4
804,36528,2,Dauphin Island,,30.2521,-88.1096,4
805,36541,2,Grand Bay,,30.4983,-88.3282,4
806,36544,2,Irvington,,30.4802,-88.2396,4
807,36560,2,Mount Vernon,,31.0974,-88.035,4
808,36568,2,Saint Elmo,,30.5035,-88.2542,4
809,36571,2,Saraland,,30.8332,-88.0934,4
810,36572,2,Satsuma,,30.8516,-88.0533,4
811,36575,2,Semmes,,30.7544,-88.2667,4
812,36582,2,Theodore,,30.5444,-88.1807,4
813,36587,2,Wilmer,,30.8137,-88.3332,4
814,36590,2,Theodore,,30.488,-88.2533,4
815,36601,2,Mobile,,30.6944,-88.0431,4
816,36602,2,Mobile,,30.6888,-88.0453,4
817,36603,2,Mobile,,30.6921,-88.0562,4
818,36604,2,Mobile,,30.682,-88.0678,4
819,36605,2,Mobile,,30.6341,-88.0846,4
820,36606,2,Mobile,,30.6729,-88.1009,4
821,36607,2,Mobile,,30.6975,-88.1029,4
822,36608,2,Mobile,,30.6817,-88.2945,4
823,36609,2,Mobile,,30.6605,-88.1618,4
824,36610,2,Mobile,,30.7309,-88.0789,4
825,36611,2,Mobile,,30.7705,-88.0781,4
826,36612,2,Mobile,,30.7518,-88.1131,4
827,36613,2,Eight Mile,,30.7951,-88.1823,4
828,36615,2,Mobile,,30.6411,-88.0622,4
829,36616,2,Mobile,,30.671,-88.1267,4
830,36617,2,Mobile,,30.7145,-88.0918,4
831,36618,2,Mobile,,30.7322,-88.1758,4
832,36619,2,Mobile,,30.5928,-88.1946,4
833,36628,2,Mobile,,30.6944,-88.0431,4
834,36633,2,Mobile,,30.6589,-88.178,4
835,36640,2,Mobile,,30.6589,-88.178,4
836,36641,2,Mobile,,30.6589,-88.178,4
837,36644,2,Mobile,,30.6944,-88.0431,4
838,36652,2,Mobile,,30.6944,-88.0431,4
839,36660,2,Mobile,,30.6589,-88.178,4
840,36663,2,Mobile,,30.6944,-88.0431,4
841,36670,2,Mobile,,30.6589,-88.178,4
842,36671,2,Mobile,,30.6589,-88.178,4
843,36675,2,Mobile,,30.6944,-88.0431,4
844,36685,2,Mobile,,30.6589,-88.178,4
845,36688,2,Mobile,,30.6962,-88.1821,4
846,36689,2,Mobile,,30.6589,-88.178,4
847,36691,2,Mobile,,30.6944,-88.0431,4
848,36693,2,Mobile,,30.6311,-88.1588,4
849,36695,2,Mobile,,30.6474,-88.2292,4
850,36425,2,Beatrice,,31.7273,-87.1719,4
851,36439,2,Excel,,31.4279,-87.3414,4
852,36444,2,Franklin,,31.7238,-87.4412,4
853,36445,2,Frisco City,,31.4235,-87.3817,4
854,36449,2,Goodway,,31.3368,-87.4258,4
855,36457,2,Megargel,,31.3612,-87.4353,4
856,36458,2,Mexia,,31.5147,-87.4084,4
857,36460,2,Monroeville,,31.5153,-87.341,4
858,36461,2,Monroeville,,31.5221,-87.3411,4
859,36470,2,Perdue Hill,,31.5141,-87.4933,4
860,36471,2,Peterman,,31.59,-87.26,4
861,36480,2,Uriah,,31.3135,-87.5705,4
862,36481,2,Vredenburgh,,31.8085,-87.3164,4
863,36013,2,Cecil,,32.2937,-85.9827,4
864,36036,2,Grady,,32.0194,-86.1292,4
865,36043,2,Hope Hull,,32.2243,-86.3932,4
866,36046,2,Lapine,,31.9657,-86.2844,4
867,36052,2,Mathews,,32.1283,-86.0413,1
868,36057,2,Mount Meigs,,32.2334,-86.2085,4
869,36064,2,Pike Road,,32.3357,-86.0959,4
870,36065,2,Pine Level,,32.0726,-86.0606,4
871,36069,2,Ramer,,32.0677,-86.2463,4
872,36101,2,Montgomery,,32.357,-86.2578,4
873,36102,2,Montgomery,,32.2334,-86.2085,4
874,36103,2,Montgomery,,32.3462,-86.2873,4
875,36104,2,Montgomery,,32.373,-86.3081,4
876,36105,2,Montgomery,,32.3257,-86.3104,4
877,36106,2,Montgomery,,32.3543,-86.2673,4
878,36107,2,Montgomery,,32.3804,-86.2799,4
879,36108,2,Montgomery,,32.3417,-86.3529,4
880,36109,2,Montgomery,,32.3834,-86.2434,4
881,36110,2,Montgomery,,32.4217,-86.275,4
882,36111,2,Montgomery,,32.3374,-86.2715,4
883,36112,2,Montgomery,,32.3808,-86.3491,4
884,36113,2,Montgomery,,32.3846,-86.3039,4
885,36114,2,Montgomery,,32.404,-86.2539,4
886,36115,2,Montgomery,,32.4076,-86.2474,4
887,36116,2,Montgomery,,32.3129,-86.2421,4
888,36117,2,Montgomery,,32.3736,-86.1833,4
889,36118,2,Montgomery,,32.2334,-86.2085,4
890,36119,2,Montgomery,,32.2334,-86.2085,4
891,36120,2,Montgomery,,32.2334,-86.2085,4
892,36121,2,Montgomery,,32.2334,-86.2085,4
893,36123,2,Montgomery,,32.3668,-86.3,4
894,36124,2,Montgomery,,32.2334,-86.2085,4
895,36125,2,Montgomery,,32.2334,-86.2085,4
896,36130,2,Montgomery,,32.2334,-86.2085,4
897,36131,2,Montgomery,,32.2334,-86.2085,4
898,36132,2,Montgomery,,32.2334,-86.2085,4
899,36135,2,Montgomery,,32.2334,-86.2085,4
900,36140,2,Montgomery,,32.2334,-86.2085,4
901,36141,2,Montgomery,,32.2334,-86.2085,4
902,36142,2,Montgomery,,32.2334,-86.2085,4
903,36177,2,Montgomery,,32.2334,-86.2085,4
904,36191,2,Montgomery,,32.2334,-86.2085,4
905,35601,2,Decatur,,34.5896,-86.9887,4
906,35602,2,Decatur,,34.6059,-86.9833,4
907,35603,2,Decatur,,34.5484,-87.0004,4
908,35609,2,Decatur,,34.6059,-86.9833,4
909,35619,2,Danville,,34.3873,-87.1454,4
910,35621,2,Eva,,34.3323,-86.7589,4
911,35622,2,Falkville,,34.3477,-86.9131,4
912,35640,2,Hartselle,,34.4482,-86.9242,4
913,35670,2,Somerville,,34.4995,-86.8009,4
914,35673,2,Trinity,,34.5918,-87.0913,4
915,35699,2,Decatur,,34.6059,-86.9833,4
916,35754,2,Laceys Spring,,34.4996,-86.6129,4
917,35775,2,Valhermoso Springs,,34.542,-86.6871,4
918,36756,2,Marion,,32.6463,-87.3314,4
919,36786,2,Uniontown,,32.447,-87.4934,4
920,35442,2,Aliceville,,33.1228,-88.1667,4
921,35447,2,Carrollton,,33.2485,-88.1321,4
922,35461,2,Ethelsville,,33.4157,-88.2167,4
923,35466,2,Gordo,,33.3469,-87.9005,4
924,35471,2,Mc Shan,,33.2626,-88.0885,1
925,35481,2,Reform,,33.3959,-88.0203,4
926,36005,2,Banks,,31.8368,-85.7998,4
927,36010,2,Brundidge,,31.7013,-85.8177,4
928,36035,2,Goshen,,31.7946,-86.1277,4
929,36079,2,Troy,,31.7595,-86.0107,4
930,36081,2,Troy,,31.7945,-85.9655,4
931,36082,2,Troy,,31.8028,-85.9546,4
932,36263,2,Graham,,33.463,-85.334,4
933,36274,2,Roanoke,,33.1512,-85.3722,4
934,36276,2,Wadley,,33.1492,-85.5513,4
935,36278,2,Wedowee,,33.3019,-85.4737,4
936,36280,2,Woodland,,33.3743,-85.3997,4
937,36851,2,Cottonton,,32.1468,-85.0738,4
938,36856,2,Fort Mitchell,,32.2965,-84.9972,4
939,36858,2,Hatchechubbee,,32.2845,-85.3029,4
940,36859,2,Holy Trinity,,32.2298,-85.0082,4
941,36860,2,Hurtsboro,,32.2454,-85.3959,4
942,36867,2,Phenix City,,32.4978,-85.0234,4
943,36868,2,Phenix City,,32.4646,-85.0206,4
944,36869,2,Phenix City,,32.4204,-85.0796,4
945,36870,2,Phenix City,,32.4781,-85.124,4
946,36871,2,Pittsview,,32.1733,-85.1312,4
947,36875,2,Seale,,32.3053,-85.1677,4
948,35004,2,Moody,,33.6035,-86.4668,4
949,35052,2,Cook Springs,,33.5895,-86.3923,4
950,35054,2,Cropwell,,33.5296,-86.3007,4
951,35112,2,Margaret,,33.6862,-86.475,4
952,35120,2,Odenville,,33.6756,-86.409,4
953,35125,2,Pell City,,33.5979,-86.3432,4
954,35128,2,Pell City,,33.5873,-86.3366,4
955,35131,2,Ragland,,33.7367,-86.1619,4
956,35135,2,Riverside,,33.6166,-86.1996,4
957,35146,2,Springville,,33.7386,-86.4394,4
958,35182,2,Wattsville,,33.7068,-86.2567,4
959,35953,2,Ashville,,33.8374,-86.2552,4
960,35987,2,Steele,,33.9417,-86.2289,4
961,35007,2,Alabaster,,33.1934,-86.7944,4
962,35040,2,Calera,,33.1098,-86.756,4
963,35043,2,Chelsea,,33.2982,-86.6563,4
964,35051,2,Columbiana,,33.177,-86.6161,4
965,35078,2,Harpersville,,33.3234,-86.4424,4
966,35080,2,Helena,,33.2663,-86.902,4
967,35114,2,Maylene,,33.2317,-86.8727,4
968,35115,2,Montevallo,,33.1248,-86.8622,4
969,35124,2,Pelham,,33.2932,-86.768,4
970,35137,2,Saginaw,,33.2063,-86.7812,4
971,35143,2,Shelby,,33.0785,-86.5536,4
972,35144,2,Siluria,,33.2293,-86.825,4
973,35147,2,Sterrett,,33.4461,-86.4917,4
974,35176,2,Vandiver,,33.4807,-86.5013,4
975,35178,2,Vincent,,33.401,-86.3994,4
976,35185,2,Westover,,33.3356,-86.5437,4
977,35186,2,Wilsonville,,33.2293,-86.5299,4
978,35187,2,Wilton,,33.081,-86.8793,4
979,35242,2,Birmingham,,33.3813,-86.7046,4
980,35459,2,Emelle,,32.755,-88.3057,4
981,35460,2,Epes,,32.672,-88.1206,4
982,35464,2,Gainesville,,32.821,-88.1589,4
983,35470,2,Livingston,,32.5843,-88.1872,4
984,35477,2,Panola,,32.8726,-88.2374,4
985,36901,2,Bellamy,,32.449,-88.1336,4
986,36907,2,Cuba,,32.411,-88.3611,4
987,36925,2,York,,32.4728,-88.2683,4
988,35014,2,Alpine,,33.404,-86.2339,4
989,35032,2,Bon Air,,33.2649,-86.3364,4
990,35044,2,Childersburg,,33.2459,-86.3641,4
991,35096,2,Lincoln,,33.6059,-86.1112,4
992,35149,2,Sycamore,,33.2512,-86.2025,4
993,35150,2,Sylacauga,,33.1717,-86.2713,4
994,35151,2,Sylacauga,,33.1756,-86.3574,4
995,35160,2,Talladega,,33.4354,-86.1134,4
996,35161,2,Talladega,,33.4202,-86.1028,4
997,36268,2,Munford,,33.541,-85.9363,4
998,35010,2,Alexander City,,32.9164,-85.9368,4
999,35011,2,Alexander City,,32.9902,-85.958,4
1000,36023,2,East Tallassee,,32.8002,-85.8034,1
1001,36256,2,Daviston,,33.0335,-85.7538,4
1002,36850,2,Camp Hill,,32.7827,-85.6474,4
1003,36853,2,Dadeville,,32.8224,-85.7704,4
1004,36861,2,Jacksons Gap,,32.8797,-85.8487,4
1005,35401,2,Tuscaloosa,,33.1969,-87.5627,4
1006,35402,2,Tuscaloosa,,33.3066,-87.4532,4
1007,35403,2,Tuscaloosa,,33.2045,-87.527,4
1008,35404,2,Tuscaloosa,,33.1826,-87.4827,4
1009,35405,2,Tuscaloosa,,33.1617,-87.5144,4
1010,35406,2,Tuscaloosa,,33.2722,-87.536,4
1011,35407,2,Tuscaloosa,,33.3066,-87.4532,4
1012,35440,2,Abernant,,33.311,-87.1898,4
1013,35444,2,Brookwood,,33.2775,-87.309,4
1014,35446,2,Buhl,,33.2306,-87.7547,4
1015,35449,2,Coaling,,33.1359,-87.3384,4
1016,35452,2,Coker,,33.2934,-87.6888,4
1017,35453,2,Cottondale,,33.1767,-87.3871,4
1018,35456,2,Duncanville,,33.0618,-87.4422,4
1019,35457,2,Echola,,33.294,-87.7766,4
1020,35458,2,Elrod,,33.2562,-87.7922,4
1021,35463,2,Fosters,,33.0843,-87.6975,4
1022,35468,2,Kellerman,,33.3407,-87.3047,4
1023,35473,2,Northport,,33.2723,-87.5825,4
1024,35475,2,Northport,,33.3992,-87.5599,4
1025,35476,2,Northport,,33.2273,-87.5943,4
1026,35478,2,Peterson,,33.3066,-87.4532,4
1027,35480,2,Ralph,,33.1274,-87.7624,4
1028,35482,2,Samantha,,33.3066,-87.4532,4
1029,35486,2,Tuscaloosa,,33.2098,-87.5692,4
1030,35487,2,Tuscaloosa,,33.3072,-87.5859,4
1031,35490,2,Vance,,33.175,-87.2574,4
1032,35038,2,Burnwell,,33.7079,-87.0875,4
1033,35062,2,Dora,,33.7357,-87.0546,4
1034,35063,2,Empire,,33.8256,-87.0161,4
1035,35130,2,Quinton,,33.6561,-87.1007,4
1036,35148,2,Sumiton,,33.768,-87.0445,4
1037,35501,2,Jasper,,33.8312,-87.2775,4
1038,35502,2,Jasper,,33.8312,-87.2775,4
1039,35503,2,Jasper,,33.9152,-87.3074,4
1040,35504,2,Jasper,,33.8927,-87.1667,4
1041,35549,2,Carbon Hill,,33.9093,-87.5403,4
1042,35550,2,Cordova,,33.768,-87.1841,4
1043,35554,2,Eldridge,,33.9315,-87.6194,4
1044,35560,2,Goodsprings,,33.6795,-87.2374,4
1045,35573,2,Kansas,,33.9018,-87.552,4
1046,35578,2,Nauvoo,,33.9299,-87.4324,4
1047,35579,2,Oakman,,33.7002,-87.3686,4
1048,35580,2,Parrish,,33.7213,-87.2658,4
1049,35584,2,Sipsey,,33.8201,-87.0779,4
1050,35587,2,Townley,,33.847,-87.4372,4
1051,36513,2,Calvert,,31.1552,-88.01,4
1052,36518,2,Chatom,,31.4876,-88.2699,4
1053,36529,2,Deer Park,,31.2168,-88.3172,4
1054,36538,2,Frankville,,31.6468,-88.1332,4
1055,36539,2,Fruitdale,,31.3488,-88.3766,4
1056,36548,2,Leroy,,31.491,-87.9687,4
1057,36553,2,Mc Intosh,,31.2361,-88.0511,1
1058,36556,2,Malcolm,,31.1913,-88.0075,4
1059,36558,2,Millry,,31.6269,-88.3559,4
1060,36569,2,Saint Stephens,,31.533,-88.0521,4
1061,36581,2,Sunflower,,31.3696,-88.0122,4
1062,36583,2,Tibbie,,31.4067,-88.1758,4
1063,36584,2,Vinegar Bend,,31.2584,-88.3865,4
1064,36585,2,Wagarville,,31.4102,-88.0705,4
1065,36435,2,Coy,,31.8889,-87.3926,4
1066,36720,2,Alberta,,32.1585,-87.3468,4
1067,36722,2,Arlington,,32.0668,-87.5597,4
1068,36723,2,Boykin,,32.0779,-87.2814,4
1069,36726,2,Camden,,32.0047,-87.295,4
1070,36728,2,Catherine,,32.182,-87.4836,4
1071,36741,2,Furman,,32.0061,-86.9817,4
1072,36751,2,Lower Peach Tree,,31.8504,-87.5682,4
1073,36753,2,Mc Williams,,32.0481,-87.2623,1
1074,36766,2,Oak Hill,,31.947,-87.0745,4
1075,36768,2,Pine Apple,,31.9265,-87.0047,4
1076,36769,2,Pine Hill,,31.9735,-87.5771,4
1077,35540,2,Addison,,34.2056,-87.1948,4
1078,35541,2,Arley,,34.0632,-87.1828,4
1079,35551,2,Delmar,,34.1701,-87.6059,4
1080,35553,2,Double Springs,,34.1387,-87.3974,4
1081,35565,2,Haleyville,,34.2314,-87.5938,4
1082,35572,2,Houston,,34.118,-87.2618,4
1083,35575,2,Lynn,,34.053,-87.5398,4
1084,35577,2,Natural Bridge,,34.0934,-87.6008,4
1085,72003,3,Almyra,,34.4146,-91.431,4
1086,72026,3,Casscoe,,34.5095,-91.299,4
1087,72038,3,Crocketts Bluff,,34.4528,-91.2692,4
1088,72042,3,De Witt,,34.2853,-91.3336,4
1089,72048,3,Ethel,,34.2435,-91.1398,4
1090,72055,3,Gillett,,34.1218,-91.38,4
1091,72073,3,Humphrey,,34.4034,-91.679,4
1092,72140,3,Saint Charles,,34.3878,-91.1463,4
1093,72160,3,Stuttgart,,34.4854,-91.5487,4
1094,72166,3,Tichnor,,34.0893,-91.2437,4
1095,71635,3,Crossett,,33.156,-91.9975,4
1096,71642,3,Fountain Hill,,33.3631,-91.9088,4
1097,71646,3,Hamburg,,33.2058,-91.8023,4
1098,71658,3,Montrose,,33.3075,-91.5228,4
1099,71661,3,Parkdale,,33.1213,-91.5428,4
1100,71663,3,Portland,,33.2318,-91.5139,4
1101,71676,3,Wilmot,,33.0576,-91.5723,4
1102,72537,3,Gamaliel,,36.4618,-92.2284,4
1103,72544,3,Henderson,,36.4105,-92.1951,4
1104,72617,3,Big Flat,,36.0068,-92.3917,4
1105,72623,3,Clarkridge,,36.4724,-92.3296,4
1106,72626,3,Cotter,,36.2712,-92.5354,4
1107,72635,3,Gassville,,36.3175,-92.4736,4
1108,72642,3,Lakeview,,36.373,-92.5422,4
1109,72651,3,Midway,,36.3933,-92.4881,4
1110,72653,3,Mountain Home,,36.3312,-92.3753,4
1111,72654,3,Mountain Home,,36.3353,-92.3852,4
1112,72658,3,Norfork,,36.2066,-92.273,4
1113,72659,3,Norfork,,36.2095,-92.2843,4
1114,72711,3,Avoca,,36.4047,-94.0713,4
1115,72712,3,Bentonville,,36.3577,-94.2224,4
1116,72713,3,Bentonville,,36.3115,-94.3503,4
1117,72714,3,Bella Vista,,36.4676,-94.2166,4
1118,72715,3,Bella Vista,,36.4677,-94.3209,4
1119,72716,3,Bentonville,,36.3729,-94.2088,4
1120,72718,3,Cave Springs,,36.2738,-94.2183,4
1121,72719,3,Centerton,,36.367,-94.3089,4
1122,72722,3,Decatur,,36.3347,-94.4534,4
1123,72732,3,Garfield,,36.4288,-93.9512,4
1124,72733,3,Gateway,,36.4864,-93.9277,4
1125,72734,3,Gentry,,36.2652,-94.4751,4
1126,72736,3,Gravette,,36.4155,-94.4779,4
1127,72739,3,Hiwasse,,36.4416,-94.339,4
1128,72745,3,Lowell,,36.2554,-94.1308,4
1129,72747,3,Maysville,,36.3811,-94.5783,4
1130,72751,3,Pea Ridge,,36.4539,-94.118,4
1131,72756,3,Rogers,,36.3363,-94.1148,4
1132,72757,3,Rogers,,36.332,-94.1185,4
1133,72758,3,Rogers,,36.3169,-94.1545,4
1134,72761,3,Siloam Springs,,36.18,-94.528,4
1135,72768,3,Sulphur Springs,,36.4794,-94.4521,4
1136,72260,3,Little Rock,,34.7399,-92.34,4
1137,72601,3,Harrison,,36.2417,-93.1062,4
1138,72602,3,Harrison,,36.2298,-93.1077,4
1139,72611,3,Alpena,,36.2998,-93.2792,4
1140,72615,3,Bergman,,36.3083,-93.0321,4
1141,72630,3,Diamond City,,36.4645,-92.9202,4
1142,72633,3,Everton,,36.1534,-92.915,4
1143,72644,3,Lead Hill,,36.3848,-93.0039,4
1144,72662,3,Omaha,,36.4612,-93.1888,4
1145,72682,3,Valley Springs,,36.1351,-92.7541,4
1146,71631,3,Banks,,33.5497,-92.2604,4
1147,71647,3,Hermitage,,33.39,-92.156,4
1148,71651,3,Jersey,,33.3889,-92.2966,4
1149,71671,3,Warren,,33.614,-92.0778,4
1150,71744,3,Hampton,,33.5376,-92.5295,4
1151,71745,3,Harrell,,33.5101,-92.3988,4
1152,71766,3,Thornton,,33.7768,-92.4862,4
1153,72613,3,Beaver,,36.4311,-93.6994,4
1154,72616,3,Berryville,,36.3519,-93.5587,4
1155,72631,3,Eureka Springs,,36.435,-93.7673,4
1156,72632,3,Eureka Springs,,36.4175,-93.7379,4
1157,72638,3,Green Forest,,36.3224,-93.4059,4
1158,72660,3,Oak Grove,,36.4613,-93.4321,4
1159,71638,3,Dermott,,33.5241,-91.4394,4
1160,71640,3,Eudora,,33.1213,-91.2716,4
1161,71653,3,Lake Village,,33.3274,-91.2825,4
1162,71721,3,Beirne,,33.8887,-93.2041,4
1163,71728,3,Curtis,,34.0103,-93.0976,4
1164,71743,3,Gurdon,,33.9125,-93.1417,4
1165,71772,3,Whelen Springs,,33.8309,-93.1263,4
1166,71920,3,Alpine,,34.229,-93.3791,4
1167,71921,3,Amity,,34.2594,-93.4206,4
1168,71923,3,Arkadelphia,,34.1153,-93.069,4
1169,71962,3,Okolona,,34.0551,-93.2897,4
1170,71998,3,Arkadelphia,,34.1209,-93.0538,4
1171,71999,3,Arkadelphia,,34.1209,-93.0538,4
1172,72422,3,Corning,,36.4155,-90.587,4
1173,72424,3,Datto,,36.3897,-90.7231,4
1174,72430,3,Greenway,,36.3348,-90.2253,4
1175,72435,3,Knobel,,36.3176,-90.599,4
1176,72441,3,Mc Dougal,,36.437,-90.3837,1
1177,72453,3,Peach Orchard,,36.283,-90.6702,4
1178,72454,3,Piggott,,36.387,-90.1926,4
1179,72456,3,Pollard,,36.4317,-90.2751,4
1180,72461,3,Rector,,36.2672,-90.2702,4
1181,72464,3,Saint Francis,,36.4534,-90.1454,4
1182,72470,3,Success,,36.4536,-90.7281,4
1183,72044,3,Edgemont,,35.6321,-92.157,4
1184,72067,3,Higden,,35.5685,-92.1341,4
1185,72130,3,Prim,,35.6674,-92.0933,4
1186,72131,3,Quitman,,35.405,-92.1333,4
1187,72179,3,Wilburn,,35.5106,-91.8648,4
1188,72523,3,Concord,,35.6414,-91.8333,4
1189,72530,3,Drasco,,35.6616,-91.9398,4
1190,72543,3,Heber Springs,,35.5103,-92.0392,4
1191,72545,3,Heber Springs,,35.5352,-92.0213,4
1192,72546,3,Ida,,35.5816,-91.9305,4
1193,72581,3,Tumbling Shoals,,35.547,-91.9704,4
1194,71652,3,Kingsland,,33.86,-92.3014,4
1195,71660,3,New Edinburg,,33.7588,-92.1939,4
1196,71665,3,Rison,,33.9453,-92.1188,4
1197,71740,3,Emerson,,33.0891,-93.1987,4
1198,71752,3,Mc Neil,,33.3622,-93.193,1
1199,71753,3,Magnolia,,33.2647,-93.2392,4
1200,71754,3,Magnolia,,33.2426,-93.23,4
1201,71770,3,Waldo,,33.36,-93.2949,4
1202,71861,3,Taylor,,33.108,-93.446,4
1203,72027,3,Center Ridge,,35.3981,-92.5582,4
1204,72030,3,Cleveland,,35.3955,-92.702,4
1205,72063,3,Hattieville,,35.2907,-92.7783,4
1206,72080,3,Jerusalem,,35.5699,-92.8251,4
1207,72107,3,Menifee,,35.1356,-92.5498,4
1208,72110,3,Morrilton,,35.1692,-92.7354,4
1209,72127,3,Plumerville,,35.1575,-92.6204,4
1210,72156,3,Solgohachia,,35.2701,-92.6754,4
1211,72157,3,Springfield,,35.2749,-92.5457,4
1212,72401,3,Jonesboro,,35.833,-90.6965,4
1213,72402,3,Jonesboro,,35.8088,-90.6529,4
1214,72403,3,Jonesboro,,35.8305,-90.7039,4
1215,72404,3,Jonesboro,,35.7792,-90.766,4
1216,72405,3,Jonesboro,,35.7792,-90.766,4
1217,72411,3,Bay,,35.7456,-90.5507,4
1218,72414,3,Black Oak,,35.8368,-90.4005,4
1219,72416,3,Bono,,35.9086,-90.7848,4
1220,72417,3,Brookland,,35.9165,-90.5762,4
1221,72419,3,Caraway,,35.759,-90.3358,4
1222,72421,3,Cash,,35.8301,-90.941,4
1223,72427,3,Egypt,,35.864,-90.9428,4
1224,72437,3,Lake City,,35.8171,-90.4423,4
1225,72447,3,Monette,,35.9002,-90.3437,4
1226,72467,3,State University,,35.8422,-90.6735,4
1227,72921,3,Alma,,35.5,-94.2073,4
1228,72932,3,Cedarville,,35.603,-94.3749,4
1229,72934,3,Chester,,35.6898,-94.202,4
1230,72935,3,Dyer,,35.4923,-94.1377,4
1231,72946,3,Mountainburg,,35.6464,-94.1497,4
1232,72947,3,Mulberry,,35.5172,-93.9885,4
1233,72948,3,Natural Dam,,35.6743,-94.4124,4
1234,72952,3,Rudy,,35.5468,-94.2913,4
1235,72955,3,Uniontown,,35.5748,-94.4349,4
1236,72956,3,Van Buren,,35.454,-94.3278,4
1237,72957,3,Van Buren,,35.4368,-94.3483,4
1238,72301,3,West Memphis,,35.1484,-90.1779,4
1239,72303,3,West Memphis,,35.1465,-90.1845,4
1240,72325,3,Clarkedale,,35.3093,-90.2362,4
1241,72327,3,Crawfordsville,,35.2119,-90.3351,4
1242,72331,3,Earle,,35.2799,-90.4503,4
1243,72332,3,Edmondson,,35.1042,-90.3133,4
1244,72339,3,Gilmore,,35.4057,-90.2714,4
1245,72364,3,Marion,,35.2077,-90.1989,4
1246,72376,3,Proctor,,35.0834,-90.255,4
1247,72384,3,Turrell,,35.3439,-90.2978,4
1248,72324,3,Cherry Valley,,35.3991,-90.7613,4
1249,72347,3,Hickory Ridge,,35.3995,-90.9823,4
1250,72373,3,Parkin,,35.2586,-90.5564,4
1251,72387,3,Vanndale,,35.3245,-90.7712,4
1252,72396,3,Wynne,,35.233,-90.793,4
1253,71725,3,Carthage,,34.0751,-92.5554,4
1254,71742,3,Fordyce,,33.8176,-92.4225,4
1255,71748,3,Ivan,,33.9118,-92.4246,4
1256,71763,3,Sparkman,,33.9143,-92.8532,4
1257,71630,3,Arkansas City,,33.6143,-91.2325,4
1258,71639,3,Dumas,,33.8921,-91.4861,4
1259,71654,3,Mc Gehee,,33.6297,-91.3928,1
1260,71662,3,Pickens,,33.842,-91.5022,4
1261,71666,3,Rohwer,,33.7609,-91.2757,4
1262,71670,3,Tillar,,33.6981,-91.4433,4
1263,71674,3,Watson,,33.8907,-91.2815,4
1264,72379,3,Snow Lake,,34.0665,-91.0071,4
1265,71655,3,Monticello,,33.625,-91.7948,4
1266,71656,3,Monticello,,33.629,-91.791,4
1267,71657,3,Monticello,,33.629,-91.791,4
1268,71675,3,Wilmar,,33.6213,-91.9257,4
1269,71677,3,Winchester,,33.7471,-91.4649,4
1270,72032,3,Conway,,35.0842,-92.4236,4
1271,72033,3,Conway,,35.1053,-92.3549,4
1272,72034,3,Conway,,35.0823,-92.4683,4
1273,72035,3,Conway,,35.1053,-92.3549,4
1274,72039,3,Damascus,,35.3673,-92.4096,4
1275,72047,3,Enola,,35.2087,-92.2123,4
1276,72058,3,Greenbrier,,35.2295,-92.3578,4
1277,72061,3,Guy,,35.3239,-92.2878,4
1278,72106,3,Mayflower,,34.9669,-92.4001,4
1279,72111,3,Mount Vernon,,35.2265,-92.124,4
1280,72173,3,Vilonia,,35.0719,-92.1832,4
1281,72181,3,Wooster,,35.1645,-92.453,4
1282,72820,3,Alix,,35.41,-93.7286,4
1283,72821,3,Altus,,35.4346,-93.7598,4
1284,72928,3,Branch,,35.2971,-93.9454,4
1285,72930,3,Cecil,,35.4252,-94.0409,4
1286,72933,3,Charleston,,35.3115,-94.0337,4
1287,72949,3,Ozark,,35.5246,-93.8374,4
1288,72515,3,Bexar,,36.2901,-92.055,4
1289,72520,3,Camp,,36.4025,-91.7262,4
1290,72531,3,Elizabeth,,36.3238,-92.0934,4
1291,72538,3,Gepp,,36.4364,-92.0995,4
1292,72539,3,Glencoe,,36.2942,-91.7474,4
1293,72554,3,Mammoth Spring,,36.4076,-91.5757,4
1294,72576,3,Salem,,36.3766,-91.8759,4
1295,72578,3,Sturkie,,36.4747,-91.8891,4
1296,72583,3,Viola,,36.3924,-91.9932,4
1297,71901,3,Hot Springs National Park,,34.5268,-92.9587,4
1298,71902,3,Hot Springs National Park,,34.5814,-93.0994,4
1299,71903,3,Hot Springs National Park,,34.5814,-93.0994,4
1300,71909,3,Hot Springs Village,,34.6484,-92.983,4
1301,71910,3,Hot Springs Village,,34.672,-92.9988,4
1302,71913,3,Hot Springs National Park,,34.5317,-93.0638,4
1303,71914,3,Hot Springs National Park,,34.5137,-92.9685,4
1304,71949,3,Jessieville,,34.7094,-93.0382,4
1305,71956,3,Mountain Pine,,34.5976,-93.1539,4
1306,71964,3,Pearcy,,34.4351,-93.242,4
1307,71968,3,Royal,,34.515,-93.2897,4
1308,72087,3,Lonsdale,,34.5562,-92.834,4
1309,72057,3,Grapevine,,34.1309,-92.3109,4
1310,72084,3,Leola,,34.1856,-92.5979,4
1311,72128,3,Poyen,,34.3023,-92.6095,4
1312,72129,3,Prattsville,,34.3079,-92.5131,4
1313,72150,3,Sheridan,,34.3165,-92.3657,4
1314,72412,3,Beech Grove,,36.1281,-90.6914,4
1315,72425,3,Delaplaine,,36.1995,-90.7345,4
1316,72436,3,Lafe,,36.2359,-90.4811,4
1317,72443,3,Marmaduke,,36.1951,-90.3837,4
1318,72450,3,Paragould,,36.06,-90.5251,4
1319,72451,3,Paragould,,36.0584,-90.4973,4
1320,72474,3,Walcott,,36.0413,-90.6718,4
1321,71801,3,Hope,,33.6736,-93.6068,4
1322,71802,3,Hope,,33.6671,-93.5916,4
1323,71825,3,Blevins,,33.8718,-93.5771,4
1324,71831,3,Columbus,,33.7935,-93.807,4
1325,71838,3,Fulton,,33.6299,-93.8086,4
1326,71847,3,Mc Caskill,,33.923,-93.6266,1
1327,71855,3,Ozan,,33.9028,-93.7714,4
1328,71862,3,Washington,,33.7546,-93.6735,4
1329,71929,3,Bismarck,,34.311,-93.1872,4
1330,71933,3,Bonnerdale,,34.3848,-93.3819,4
1331,71941,3,Donaldson,,34.2212,-92.9094,4
1332,71942,3,Friendship,,34.2235,-93.0024,4
1333,72019,3,Benton,,34.604,-92.6259,4
1334,72104,3,Malvern,,34.3557,-92.8292,4
1335,72105,3,Jones Mill,,34.4374,-92.8943,1
1336,71833,3,Dierks,,34.1323,-94.0152,4
1337,71851,3,Mineral Springs,,33.8639,-93.9188,4
1338,71852,3,Nashville,,33.9576,-93.8707,4
1339,71859,3,Saratoga,,33.7599,-93.8767,4
1340,71971,3,Umpire,,34.2921,-94.0314,4
1341,72165,3,Thida,,35.5762,-91.4539,4
1342,72501,3,Batesville,,35.7826,-91.6352,4
1343,72503,3,Batesville,,35.7346,-91.5343,4
1344,72522,3,Charlotte,,35.8184,-91.4387,4
1345,72524,3,Cord,,35.8184,-91.3375,4
1346,72526,3,Cushman,,35.8729,-91.754,4
1347,72527,3,Desha,,35.7411,-91.6985,4
1348,72534,3,Floral,,35.6023,-91.7341,4
1349,72550,3,Locust Grove,,35.7177,-91.7414,4
1350,72553,3,Magness,,35.6941,-91.4753,4
1351,72562,3,Newark,,35.7118,-91.4394,4
1352,72564,3,Oil Trough,,35.6131,-91.4703,4
1353,72568,3,Pleasant Plains,,35.5893,-91.632,4
1354,72571,3,Rosie,,35.6638,-91.534,4
1355,72575,3,Salado,,35.6919,-91.5989,4
1356,72579,3,Sulphur Rock,,35.7545,-91.5073,4
1357,72512,3,Horseshoe Bend,,36.2025,-91.7553,4
1358,72517,3,Brockwell,,36.1358,-91.9513,4
1359,72519,3,Calico Rock,,36.1202,-92.1867,4
1360,72528,3,Dolph,,36.2229,-92.1177,4
1361,72536,3,Franklin,,36.1703,-91.776,4
1362,72540,3,Guion,,35.9266,-91.9103,4
1363,72556,3,Melbourne,,36.0635,-91.9079,4
1364,72561,3,Mount Pleasant,,35.9759,-91.785,4
1365,72565,3,Oxford,,36.2114,-91.9258,4
1366,72566,3,Pineville,,36.1677,-92.1073,4
1367,72573,3,Sage,,36.0688,-91.791,4
1368,72584,3,Violet Hill,,36.163,-91.8471,4
1369,72585,3,Wideman,,36.1865,-92.0088,4
1370,72587,3,Wiseman,,36.2345,-91.8154,4
1371,72005,3,Amagon,,35.562,-91.1104,4
1372,72014,3,Beedeville,,35.4291,-91.1057,4
1373,72043,3,Diaz,,35.6336,-91.2592,4
1374,72075,3,Jacksonport,,35.6414,-91.3072,4
1375,72112,3,Newport,,35.5988,-91.2571,4
1376,72169,3,Tupelo,,35.3844,-91.2232,4
1377,72431,3,Grubbs,,35.6498,-91.074,4
1378,72471,3,Swifton,,35.8274,-91.1264,4
1379,72473,3,Tuckerman,,35.7307,-91.2003,4
1380,71601,3,Pine Bluff,,34.209,-91.9859,4
1381,71602,3,White Hall,,34.274,-92.091,4
1382,71603,3,Pine Bluff,,34.1897,-92.0448,4
1383,71611,3,Pine Bluff,,34.2615,-91.9551,4
1384,71612,3,White Hall,,34.274,-92.091,4
1385,71613,3,Pine Bluff,,34.1579,-92.0713,4
1386,71659,3,Moscow,,34.1465,-91.7951,4
1387,72004,3,Altheimer,,34.3062,-91.8289,4
1388,72079,3,Jefferson,,34.3934,-92.2029,4
1389,72132,3,Redfield,,34.4526,-92.1758,4
1390,72133,3,Reydell,,34.1715,-91.5656,4
1391,72152,3,Sherrill,,34.3581,-91.9933,4
1392,72168,3,Tucker,,34.4414,-91.9163,4
1393,72175,3,Wabbaseka,,34.3936,-91.7549,4
1394,72182,3,Wright,,34.4291,-92.0599,4
1395,72830,3,Clarksville,,35.4908,-93.4911,4
1396,72832,3,Coal Hill,,35.4371,-93.672,4
1397,72839,3,Hagarville,,35.6155,-93.2726,4
1398,72840,3,Hartman,,35.4436,-93.6142,4
1399,72845,3,Knoxville,,35.3749,-93.3618,4
1400,72846,3,Lamar,,35.4349,-93.3552,4
1401,72852,3,Oark,,35.7095,-93.5585,4
1402,72854,3,Ozone,,35.6575,-93.4311,4
1403,71826,3,Bradley,,33.107,-93.6275,4
1404,71827,3,Buckner,,33.3753,-93.447,4
1405,71839,3,Garland City,,33.3352,-93.7316,1
1406,71845,3,Lewisville,,33.3736,-93.5953,4
1407,71860,3,Stamps,,33.3569,-93.5013,4
1408,72410,3,Alicia,,35.9423,-91.081,4
1409,72415,3,Black Rock,,36.1149,-91.1176,4
1410,72433,3,Hoxie,,36.0326,-90.9715,4
1411,72434,3,Imboden,,36.1976,-91.1854,4
1412,72440,3,Lynn,,35.9813,-91.2676,4
1413,72445,3,Minturn,,35.9728,-91.0235,4
1414,72457,3,Portia,,36.0865,-91.0673,4
1415,72458,3,Powhatan,,36.08,-91.1482,4
1416,72459,3,Ravenden,,36.2029,-91.2593,4
1417,72465,3,Sedgwick,,35.9643,-90.8954,4
1418,72466,3,Smithville,,36.0908,-91.2745,4
1419,72469,3,Strawberry,,35.9673,-91.2935,4
1420,72476,3,Walnut Ridge,,36.0244,-90.9288,4
1421,72572,3,Saffell,,35.8781,-91.3004,4
1422,72311,3,Aubrey,,34.7195,-90.8969,4
1423,72320,3,Brickeys,,34.8548,-90.5377,4
1424,72341,3,Haynes,,34.8838,-90.7666,4
1425,72352,3,La Grange,,34.7697,-90.7552,4
1426,72360,3,Marianna,,34.7759,-90.7785,4
1427,72368,3,Moro,,34.803,-91.006,4
1428,71643,3,Gould,,34.0345,-91.5768,4
1429,71644,3,Grady,,34.1032,-91.7057,4
1430,71667,3,Star City,,33.9405,-91.8653,4
1431,71678,3,Yorktown,,33.9787,-91.6991,4
1432,71820,3,Alleene,,33.7944,-94.2681,4
1433,71822,3,Ashdown,,33.6787,-94.1351,4
1434,71836,3,Foreman,,33.7176,-94.3881,4
1435,71853,3,Ogden,,33.5826,-94.0427,4
1436,71865,3,Wilton,,33.7475,-94.1518,4
1437,71866,3,Winthrop,,33.8583,-94.3952,4
1438,72826,3,Blue Mountain,,35.1304,-93.7116,4
1439,72835,3,Delaware,,35.278,-93.3462,4
1440,72851,3,New Blaine,,35.3189,-93.4446,4
1441,72855,3,Paris,,35.2941,-93.7265,4
1442,72863,3,Scranton,,35.3585,-93.5454,4
1443,72865,3,Subiaco,,35.3153,-93.5991,4
1444,72927,3,Booneville,,35.1364,-93.9274,4
1445,72943,3,Magazine,,35.1587,-93.8003,4
1446,72951,3,Ratcliff,,35.2917,-93.8899,4
1447,72007,3,Austin,,34.9921,-91.9798,4
1448,72023,3,Cabot,,34.9457,-92.0318,4
1449,72024,3,Carlisle,,34.7933,-91.7459,4
1450,72037,3,Coy,,34.5387,-91.874,4
1451,72046,3,England,,34.5575,-91.9484,4
1452,72072,3,Humnoke,,34.4857,-91.7624,4
1453,72083,3,Keo,,34.6041,-92.0078,4
1454,72086,3,Lonoke,,34.7832,-91.9214,4
1455,72176,3,Ward,,34.9532,-91.9004,4
1456,72721,3,Combs,,35.8607,-93.8112,4
1457,72738,3,Hindsville,,36.1422,-93.8633,4
1458,72740,3,Huntsville,,36.1043,-93.7279,4
1459,72742,3,Kingston,,36.0485,-93.5044,4
1460,72752,3,Pettigrew,,35.8346,-93.6181,4
1461,72760,3,Saint Paul,,35.8496,-93.7347,4
1462,72773,3,Wesley,,36.0114,-93.8526,4
1463,72776,3,Witter,,35.9356,-93.621,4
1464,72619,3,Bull Shoals,,36.371,-92.5938,4
1465,72634,3,Flippin,,36.2682,-92.578,4
1466,72661,3,Oakland,,36.4442,-92.5832,4
1467,72668,3,Peel,,36.435,-92.7615,4
1468,72672,3,Pyatt,,36.2486,-92.8416,4
1469,72677,3,Summit,,36.2523,-92.6907,4
1470,72687,3,Yellville,,36.2253,-92.7245,4
1471,71834,3,Doddridge,,33.1054,-93.9543,4
1472,71837,3,Fouke,,33.3025,-93.901,4
1473,71840,3,Genoa,,33.3837,-93.9096,4
1474,71854,3,Texarkana,,33.431,-93.8765,4
1475,72310,3,Armorel,,35.9201,-89.7981,4
1476,72313,3,Bassett,,35.5365,-90.1268,4
1477,72315,3,Blytheville,,35.9273,-89.919,4
1478,72316,3,Blytheville,,35.9273,-89.919,4
1479,72319,3,Gosnell,,35.9598,-89.972,4
1480,72321,3,Burdette,,35.8173,-89.9393,4
1481,72329,3,Driver,,35.6253,-90.0138,4
1482,72330,3,Dyess,,35.5954,-90.2157,4
1483,72338,3,Frenchmans Bayou,,35.4591,-90.1884,4
1484,72350,3,Joiner,,35.5052,-90.1478,4
1485,72351,3,Keiser,,35.6737,-90.0963,4
1486,72358,3,Luxora,,35.7608,-89.922,4
1487,72370,3,Osceola,,35.7019,-89.9798,4
1488,72391,3,West Ridge,,35.6831,-90.2626,4
1489,72395,3,Wilson,,35.566,-90.0427,4
1490,72426,3,Dell,,35.8554,-90.0418,4
1491,72428,3,Etowah,,35.7337,-90.1838,4
1492,72438,3,Leachville,,35.9332,-90.1955,4
1493,72442,3,Manila,,35.8439,-90.1806,4
1494,72021,3,Brinkley,,34.8781,-91.1886,4
1495,72029,3,Clarendon,,34.6601,-91.2564,4
1496,72069,3,Holly Grove,,34.5993,-91.1844,4
1497,72108,3,Monroe,,34.7348,-91.1046,4
1498,72134,3,Roe,,34.6286,-91.3771,4
1499,71935,3,Caddo Gap,,34.3913,-93.7637,4
1500,71957,3,Mount Ida,,34.5612,-93.5749,4
1501,71960,3,Norman,,34.4596,-93.6743,4
1502,71961,3,Oden,,34.6113,-93.8211,4
1503,71965,3,Pencil Bluff,,34.6399,-93.7429,4
1504,71966,3,Oden,,34.619,-93.7769,4
1505,71969,3,Sims,,34.6462,-93.6741,4
1506,71970,3,Story,,34.6687,-93.5376,4
1507,71722,3,Bluff City,,33.7038,-93.1588,4
1508,71828,3,Cale,,33.7008,-93.2941,4
1509,71835,3,Emmet,,33.6929,-93.4232,4
1510,71857,3,Prescott,,33.804,-93.3725,4
1511,71858,3,Rosston,,33.5926,-93.2766,4
1512,71864,3,Willisville,,33.7008,-93.2941,4
1513,72624,3,Compton,,36.0979,-93.3099,4
1514,72628,3,Deer,,35.853,-93.3174,4
1515,72640,3,Hasty,,36.0152,-93.046,4
1516,72641,3,Jasper,,36.0038,-93.2048,4
1517,72648,3,Marble Falls,,36.0695,-93.1566,4
1518,72655,3,Mount Judea,,35.9407,-93.0654,4
1519,72666,3,Parthenon,,35.9451,-93.2677,4
1520,72670,3,Ponca,,36.0242,-93.3646,4
1521,72683,3,Vendor,,35.9473,-93.0774,4
1522,72685,3,Western Grove,,36.083,-92.9716,4
1523,71701,3,Camden,,33.5948,-92.8513,4
1524,71711,3,Camden,,33.589,-92.8426,4
1525,71720,3,Bearden,,33.7298,-92.618,4
1526,71726,3,Chidester,,33.6652,-92.9969,4
1527,71751,3,Louann,,33.4169,-92.777,4
1528,71764,3,Stephens,,33.455,-93.0214,4
1529,72001,3,Adona,,35.047,-92.9033,4
1530,72016,3,Bigelow,,34.9847,-92.6308,4
1531,72025,3,Casa,,35.0322,-93.047,4
1532,72070,3,Houston,,35.0362,-92.6913,4
1533,72125,3,Perry,,35.0443,-92.7958,4
1534,72126,3,Perryville,,34.9701,-92.8472,4
1535,72312,3,Barton,,34.5467,-90.7679,4
1536,72328,3,Crumrod,,34.1335,-90.9751,4
1537,72333,3,Elaine,,34.3118,-90.8939,4
1538,72342,3,Helena,,34.5325,-90.6298,4
1539,72353,3,Lambrook,,34.3286,-90.9652,4
1540,72355,3,Lexa,,34.5979,-90.7523,4
1541,72366,3,Marvell,,34.5485,-90.9413,4
1542,72367,3,Mellwood,,34.2198,-90.9504,4
1543,72369,3,Oneida,,34.4542,-90.7684,4
1544,72374,3,Poplar Grove,,34.5394,-90.8813,4
1545,72383,3,Turner,,34.4762,-91.0187,4
1546,72389,3,Wabash,,34.3466,-90.8869,4
1547,72390,3,West Helena,,34.5496,-90.6545,4
1548,71922,3,Antoine,,34.0362,-93.4207,4
1549,71940,3,Delight,,34.0238,-93.5247,4
1550,71943,3,Glenwood,,34.3192,-93.5559,4
1551,71950,3,Kirby,,34.2513,-93.741,4
1552,71952,3,Langley,,34.314,-93.8509,4
1553,71958,3,Murfreesboro,,34.1017,-93.7109,4
1554,71959,3,Newhope,,34.2273,-93.8905,4
1555,72354,3,Lepanto,,35.6069,-90.3359,4
1556,72365,3,Marked Tree,,35.5349,-90.4194,4
1557,72377,3,Rivervale,,35.674,-90.3401,4
1558,72386,3,Tyronza,,35.4865,-90.3519,4
1559,72429,3,Fisher,,35.514,-90.955,4
1560,72432,3,Harrisburg,,35.5722,-90.7038,4
1561,72472,3,Trumann,,35.5882,-90.562,4
1562,72475,3,Waldenburg,,35.5631,-90.9207,4
1563,72479,3,Weiner,,35.6291,-90.9289,4
1564,71932,3,Board Camp,,34.5372,-94.0972,4
1565,71937,3,Cove,,34.4192,-94.3923,4
1566,71944,3,Grannis,,34.237,-94.3255,4
1567,71945,3,Hatfield,,34.4877,-94.3714,4
1568,71953,3,Mena,,34.5814,-94.221,4
1569,71972,3,Vandervoort,,34.3941,-94.2535,4
1570,71973,3,Wickes,,34.3088,-94.3403,4
1571,72679,3,Tilly,,35.7341,-92.8391,4
1572,72801,3,Russellville,,35.2842,-93.1315,4
1573,72802,3,Russellville,,35.3067,-93.0712,4
1574,72811,3,Russellville,,35.2784,-93.1338,4
1575,72812,3,Russellville,,35.4231,-93.0544,4
1576,72823,3,Atkins,,35.2449,-92.9507,4
1577,72837,3,Dover,,35.4074,-93.1355,4
1578,72843,3,Hector,,35.5499,-92.9616,4
1579,72847,3,London,,35.3744,-93.2736,4
1580,72856,3,Pelsor,,35.7854,-93.0812,4
1581,72858,3,Pottsville,,35.2398,-93.0564,4
1582,72017,3,Biscoe,,34.8733,-91.3945,4
1583,72040,3,Des Arc,,34.9751,-91.5113,4
1584,72041,3,De Valls Bluff,,34.7447,-91.4982,4
1585,72064,3,Hazen,,34.7838,-91.5767,4
1586,72066,3,Hickory Plains,,34.9901,-91.7368,4
1587,72170,3,Ulm,,34.5772,-91.4633,4
1588,72002,3,Alexander,,34.6313,-92.4727,4
1589,72053,3,College Station,,34.7093,-92.2283,4
1590,72065,3,Hensley,,34.5208,-92.2758,4
1591,72076,3,Jacksonville,,34.919,-92.1419,4
1592,72078,3,Jacksonville,,34.8662,-92.1101,4
1593,72099,3,Little Rock Air Force Base,,34.9074,-92.1397,4
1594,72103,3,Mabelvale,,34.6478,-92.3849,4
1595,72113,3,Maumelle,,34.8491,-92.4059,4
1596,72114,3,North Little Rock,,34.7666,-92.2629,4
1597,72115,3,North Little Rock,,34.7695,-92.2671,4
1598,72116,3,North Little Rock,,34.8059,-92.2305,4
1599,72117,3,North Little Rock,,34.7658,-92.1524,4
1600,72118,3,North Little Rock,,34.8337,-92.3289,4
1601,72119,3,North Little Rock,,34.8017,-92.2598,4
1602,72120,3,Sherwood,,34.8807,-92.2303,4
1603,72124,3,North Little Rock,,34.7519,-92.3925,4
1604,72135,3,Roland,,34.8829,-92.5192,4
1605,72142,3,Scott,,34.6942,-92.1157,4
1606,72164,3,Sweet Home,,34.6873,-92.2399,4
1607,72180,3,Woodson,,34.5338,-92.2089,4
1608,72183,3,Wrightsville,,34.6012,-92.1938,4
1609,72190,3,North Little Rock,,34.7519,-92.3925,4
1610,72199,3,North Little Rock,,34.8272,-92.2847,4
1611,72201,3,Little Rock,,34.7483,-92.2819,4
1612,72202,3,Little Rock,,34.7363,-92.2741,4
1613,72203,3,Little Rock,,34.8835,-92.3908,4
1614,72204,3,Little Rock,,34.7269,-92.344,4
1615,72205,3,Little Rock,,34.751,-92.3455,4
1616,72206,3,Little Rock,,34.6836,-92.2776,4
1617,72207,3,Little Rock,,34.7721,-92.3565,4
1618,72209,3,Little Rock,,34.6725,-92.3529,4
1619,72210,3,Little Rock,,34.7076,-92.466,4
1620,72211,3,Little Rock,,34.7413,-92.4222,4
1621,72212,3,Little Rock,,34.7871,-92.4222,4
1622,72214,3,Little Rock,,34.7621,-92.2282,4
1623,72215,3,Little Rock,,34.7519,-92.3925,4
1624,72216,3,Little Rock,,34.8178,-92.2357,4
1625,72217,3,Little Rock,,34.8302,-92.1702,4
1626,72219,3,Little Rock,,34.7519,-92.3925,4
1627,72221,3,Little Rock,,34.7519,-92.3925,4
1628,72222,3,Little Rock,,34.7519,-92.3925,4
1629,72223,3,Little Rock,,34.7902,-92.5044,4
1630,72225,3,Little Rock,,34.7519,-92.3925,4
1631,72227,3,Little Rock,,34.7757,-92.3724,4
1632,72231,3,Little Rock,,34.8019,-92.1894,4
1633,72255,3,Little Rock,,34.7464,-92.2894,""
1634,72295,3,Little Rock,,34.7519,-92.3925,4
1635,72413,3,Biggers,,36.2844,-90.8538,4
1636,72444,3,Maynard,,36.4386,-90.8749,4
1637,72449,3,O Kean,,36.1797,-90.8241,4
1638,72455,3,Pocahontas,,36.2829,-90.9968,4
1639,72460,3,Ravenden Springs,,36.3104,-91.2094,4
1640,72462,3,Reyno,,36.3744,-90.7676,4
1641,72478,3,Warm Springs,,36.4803,-91.0515,4
1642,72322,3,Caldwell,,35.0562,-90.8288,4
1643,72326,3,Colt,,35.0881,-90.8895,4
1644,72335,3,Forrest City,,35.0091,-90.7886,4
1645,72336,3,Forrest City,,35.0081,-90.7898,4
1646,72340,3,Goodwin,,34.9358,-91.0292,4
1647,72346,3,Heth,,35.0973,-90.4586,4
1648,72348,3,Hughes,,34.9454,-90.4741,4
1649,72359,3,Madison,,35.0252,-90.7086,4
1650,72372,3,Palestine,,34.9663,-90.9049,4
1651,72392,3,Wheatley,,34.9207,-91.1086,4
1652,72394,3,Widener,,35.0592,-90.6293,4
1653,72011,3,Bauxite,,34.5091,-92.4828,4
1654,72015,3,Benton,,34.4933,-92.5896,4
1655,72018,3,Benton,,34.5645,-92.5868,4
1656,72022,3,Bryant,,34.6068,-92.492,4
1657,72089,3,Bryant,,34.5959,-92.489,4
1658,72122,3,Paron,,34.7853,-92.7482,4
1659,72158,3,Benton,,34.635,-92.6597,4
1660,72167,3,Traskwood,,34.4508,-92.6547,4
1661,72841,3,Harvey,,34.8762,-93.764,4
1662,72926,3,Boles,,34.7654,-94.0629,4
1663,72944,3,Mansfield,,35.0432,-94.2204,4
1664,72950,3,Parks,,34.8003,-93.9509,4
1665,72958,3,Waldron,,34.9026,-94.0772,4
1666,72636,3,Gilbert,,35.9879,-92.7163,4
1667,72639,3,Harriet,,35.9991,-92.5042,4
1668,72645,3,Leslie,,35.8272,-92.5663,4
1669,72650,3,Marshall,,35.9267,-92.6402,4
1670,72669,3,Pindall,,36.0675,-92.8864,4
1671,72675,3,Saint Joe,,35.9877,-92.7928,4
1672,72686,3,Witts Springs,,35.7681,-92.8668,4
1673,72901,3,Fort Smith,,35.3653,-94.411,4
1674,72902,3,Fort Smith,,35.3862,-94.4091,4
1675,72903,3,Fort Smith,,35.3427,-94.3784,4
1676,72904,3,Fort Smith,,35.4051,-94.3872,4
1677,72905,3,Fort Smith,,35.3859,-94.3985,4
1678,72906,3,Fort Smith,,35.3859,-94.3985,4
1679,72908,3,Fort Smith,,35.3219,-94.4028,4
1680,72913,3,Fort Smith,,35.3859,-94.3985,4
1681,72914,3,Fort Smith,,35.3859,-94.3985,4
1682,72916,3,Fort Smith,,35.2502,-94.3703,4
1683,72917,3,Fort Smith,,35.3859,-94.3985,4
1684,72918,3,Fort Smith,,35.3859,-94.3985,4
1685,72919,3,Fort Smith,,35.3859,-94.3985,4
1686,72923,3,Barling,,35.333,-94.3082,4
1687,72936,3,Greenwood,,35.1955,-94.253,4
1688,72937,3,Hackett,,35.1945,-94.3983,4
1689,72938,3,Hartford,,35.0222,-94.3819,4
1690,72940,3,Huntington,,35.0963,-94.3313,4
1691,72941,3,Lavaca,,35.3661,-94.1917,4
1692,72945,3,Midland,,35.0932,-94.3533,4
1693,71823,3,Ben Lomond,,33.8115,-94.1251,4
1694,71832,3,De Queen,,34.0442,-94.3386,4
1695,71841,3,Gillham,,34.157,-94.3165,4
1696,71842,3,Horatio,,33.9392,-94.2959,4
1697,71846,3,Lockesburg,,33.9306,-94.1276,4
1698,72482,3,Williford,,36.2453,-91.3792,4
1699,72513,3,Ash Flat,,36.2201,-91.6421,4
1700,72521,3,Cave City,,35.9517,-91.5444,4
1701,72525,3,Cherokee Village,,36.311,-91.597,4
1702,72529,3,Cherokee Village,,36.3011,-91.5281,4
1703,72532,3,Evening Shade,,36.0855,-91.598,4
1704,72542,3,Hardy,,36.3227,-91.411,4
1705,72569,3,Poughkeepsie,,36.0767,-91.4793,4
1706,72577,3,Sidney,,36.0664,-91.642,4
1707,72051,3,Fox,,35.7682,-92.3043,4
1708,72533,3,Fifty Six,,35.992,-92.2182,4
1709,72555,3,Marcella,,35.7756,-91.8718,4
1710,72560,3,Mountain View,,35.8208,-92.0389,4
1711,72567,3,Pleasant Grove,,35.8265,-91.8958,4
1712,72657,3,Timbo,,35.919,-92.1272,4
1713,72663,3,Onia,,35.9403,-92.3459,4
1714,72680,3,Timbo,,35.8845,-92.2913,4
1715,71724,3,Calion,,33.3261,-92.5464,4
1716,71730,3,El Dorado,,33.2073,-92.6629,4
1717,71731,3,El Dorado,,33.2076,-92.6663,4
1718,71747,3,Huttig,,33.0459,-92.1942,4
1719,71749,3,Junction City,,33.0163,-92.7243,4
1720,71750,3,Lawson,,33.1968,-92.4829,4
1721,71758,3,Mount Holly,,33.3085,-92.9443,4
1722,71759,3,Norphlet,,33.316,-92.6629,4
1723,71762,3,Smackover,,33.3398,-92.7442,4
1724,71765,3,Strong,,33.1195,-92.3621,4
1725,72013,3,Bee Branch,,35.4683,-92.3779,4
1726,72028,3,Choctaw,,35.5773,-92.5456,4
1727,72031,3,Clinton,,35.6045,-92.4758,4
1728,72088,3,Fairfield Bay,,35.6027,-92.2742,4
1729,72141,3,Scotland,,35.508,-92.5867,4
1730,72153,3,Shirley,,35.6498,-92.3143,4
1731,72629,3,Dennard,,35.7252,-92.5575,4
1732,72701,3,Fayetteville,,36.052,-94.1534,4
1733,72702,3,Fayetteville,,36.0626,-94.1574,4
1734,72703,3,Fayetteville,,36.0992,-94.1716,4
1735,72704,3,Fayetteville,,36.0877,-94.3093,4
1736,72717,3,Canehill,,35.8477,-94.4441,4
1737,72727,3,Elkins,,36.0177,-94.0073,4
1738,72728,3,Elm Springs,,36.21,-94.2546,4
1739,72729,3,Evansville,,35.7823,-94.4638,4
1740,72730,3,Farmington,,36.0436,-94.2539,4
1741,72735,3,Goshen,,36.0876,-93.9666,4
1742,72737,3,Greenland,,35.9942,-94.1752,4
1743,72741,3,Johnson,,36.1329,-94.1655,4
1744,72744,3,Lincoln,,35.9569,-94.4272,4
1745,72749,3,Morrow,,35.8654,-94.4432,4
1746,72753,3,Prairie Grove,,35.9918,-94.3169,4
1747,72762,3,Springdale,,36.1835,-94.1762,4
1748,72764,3,Springdale,,36.1716,-94.0428,4
1749,72765,3,Springdale,,36.1725,-94.1535,4
1750,72766,3,Springdale,,36.1867,-94.1288,4
1751,72769,3,Summers,,36.0138,-94.5,4
1752,72770,3,Tontitown,,36.15,-94.2429,4
1753,72774,3,West Fork,,35.9082,-94.2304,4
1754,72959,3,Winslow,,35.8312,-94.1187,4
1755,72010,3,Bald Knob,,35.3113,-91.5502,4
1756,72012,3,Beebe,,35.0937,-91.9074,4
1757,72020,3,Bradford,,35.4277,-91.519,4
1758,72045,3,El Paso,,35.1142,-92.0901,4
1759,72052,3,Garner,,35.1443,-91.7772,4
1760,72060,3,Griffithville,,35.1144,-91.6242,4
1761,72068,3,Higginson,,35.1903,-91.7108,4
1762,72081,3,Judsonia,,35.325,-91.6491,4
1763,72082,3,Kensett,,35.2388,-91.6731,4
1764,72085,3,Letona,,35.3617,-91.8293,4
1765,72102,3,Mc Rae,,35.1132,-91.8216,1
1766,72121,3,Pangburn,,35.4216,-91.796,4
1767,72136,3,Romance,,35.2155,-92.0699,4
1768,72137,3,Rose Bud,,35.3214,-92.062,4
1769,72139,3,Russell,,35.3609,-91.5071,4
1770,72143,3,Searcy,,35.2436,-91.7317,4
1771,72145,3,Searcy,,35.2774,-91.7326,4
1772,72149,3,Searcy,,35.2474,-91.7314,4
1773,72178,3,West Point,,35.2032,-91.6064,4
1774,72006,3,Augusta,,35.2788,-91.3527,4
1775,72036,3,Cotton Plant,,35.0178,-91.229,4
1776,72059,3,Gregory,,35.1554,-91.3432,4
1777,72074,3,Hunter,,35.0529,-91.1262,4
1778,72101,3,Mc Crory,,35.2473,-91.1793,1
1779,72123,3,Patterson,,35.2588,-91.237,4
1780,72824,3,Belleville,,35.1038,-93.4518,4
1781,72827,3,Bluffton,,34.9016,-93.5919,4
1782,72828,3,Briggsville,,34.9161,-93.5157,4
1783,72829,3,Centerville,,35.1018,-93.1773,4
1784,72833,3,Danville,,35.0495,-93.3929,4
1785,72834,3,Dardanelle,,35.1955,-93.1873,4
1786,72838,3,Gravelly,,34.8881,-93.6802,4
1787,72842,3,Havana,,35.0832,-93.5955,4
1788,72853,3,Ola,,35.0309,-93.2136,4
1789,72857,3,Plainview,,34.9668,-93.3099,4
1790,72860,3,Rover,,34.9475,-93.4017,4
1791,85920,4,Alpine,,33.8279,-109.1283,4
1792,85924,4,Concho,,34.4458,-109.6741,4
1793,85925,4,Eagar,,34.1077,-109.294,4
1794,85927,4,Greer,,34.0052,-109.4664,4
1795,85930,4,Mcnary,,34.0754,-109.8532,4
1796,85932,4,Nutrioso,,33.9531,-109.2092,4
1797,85936,4,Saint Johns,,34.501,-109.3796,4
1798,85938,4,Springerville,,34.1702,-109.3315,4
1799,85940,4,Vernon,,34.2575,-109.6929,4
1800,86028,4,Petrified Forest Natl Pk,,35.2375,-109.5229,1
1801,86502,4,Chambers,,35.2375,-109.5229,4
1802,86503,4,Chinle,,36.1304,-109.6037,4
1803,86504,4,Fort Defiance,,35.7445,-109.0765,4
1804,86505,4,Ganado,,35.7114,-109.542,4
1805,86506,4,Houck,,35.2831,-109.207,4
1806,86507,4,Lukachukai,,36.4181,-109.2446,4
1807,86508,4,Lupton,,35.3539,-109.0537,4
1808,86511,4,Saint Michaels,,35.6447,-109.0956,4
1809,86512,4,Sanders,,35.2164,-109.3337,4
1810,86514,4,Teec Nos Pos,,36.7797,-109.359,4
1811,86515,4,Window Rock,,35.6676,-109.0784,4
1812,86535,4,Dennehotso,,36.7773,-109.861,4
1813,86538,4,Many Farms,,36.4083,-109.634,4
1814,86540,4,Nazlini,,35.8964,-109.4487,4
1815,86544,4,Red Valley,,35.2375,-109.5229,1
1816,86545,4,Rock Point,,36.7181,-109.6259,4
1817,86547,4,Round Rock,,36.5131,-109.4734,4
1818,86556,4,Tsaile,,36.3071,-109.2176,4
1819,85602,4,Benson,,31.9883,-110.2941,4
1820,85603,4,Bisbee,,31.4086,-109.9117,4
1821,85605,4,Bowie,,32.3265,-109.487,4
1822,85606,4,Cochise,,32.0979,-109.9239,4
1823,85607,4,Douglas,,31.3511,-109.5447,4
1824,85608,4,Douglas,,31.4151,-109.596,4
1825,85609,4,Dragoon,,32.0281,-110.0387,4
1826,85610,4,Elfrida,,31.7139,-109.6193,4
1827,85613,4,Fort Huachuca,,31.5587,-110.3441,1
1828,85615,4,Hereford,,31.4035,-110.2047,4
1829,85616,4,Huachuca City,,31.6639,-110.3334,4
1830,85617,4,Mc Neal,,31.5121,-109.8438,1
1831,85620,4,Naco,,31.3373,-109.9413,4
1832,85625,4,Pearce,,31.8885,-109.6119,4
1833,85626,4,Pirtleville,,31.3572,-109.5635,4
1834,85627,4,Pomerene,,31.9995,-110.2862,4
1835,85630,4,Saint David,,31.8973,-110.2154,4
1836,85632,4,San Simon,,32.0423,-109.1748,4
1837,85635,4,Sierra Vista,,31.5365,-110.2666,4
1838,85636,4,Sierra Vista,,31.6687,-110.2801,4
1839,85638,4,Tombstone,,31.7216,-110.0584,4
1840,85643,4,Willcox,,32.373,-109.8631,4
1841,85644,4,Willcox,,32.2529,-109.832,4
1842,85650,4,Sierra Vista,,31.4892,-110.2153,4
1843,85655,4,Douglas,,31.3447,-109.5468,1
1844,85670,4,Fort Huachuca,,31.8801,-109.7543,1
1845,85671,4,Sierra Vista,,31.5545,-110.3037,4
1846,85931,4,Forest Lakes,,34.4513,-110.8644,4
1847,86001,4,Flagstaff,,35.1859,-111.662,4
1848,86002,4,Flagstaff,,35.1981,-111.6513,4
1849,86003,4,Flagstaff,,35.1981,-111.6513,4
1850,86004,4,Flagstaff,,35.2257,-111.5741,4
1851,86005,4,Flagstaff,,35.1545,-111.6789,4
1852,86011,4,Flagstaff,,35.1981,-111.6513,4
1853,86015,4,Bellemont,,35.2381,-111.8335,4
1854,86016,4,Gray Mountain,,35.7504,-111.6188,4
1855,86017,4,Munds Park,,34.9412,-111.641,4
1856,86018,4,Parks,,35.2563,-111.95,4
1857,86020,4,Cameron,,35.9922,-111.5038,4
1858,86022,4,Fredonia,,36.9044,-112.4979,4
1859,86023,4,Grand Canyon,,35.9421,-112.1309,4
1860,86024,4,Happy Jack,,34.6616,-111.3404,4
1861,86035,4,Leupp,,35.3365,-110.9927,4
1862,86036,4,Marble Canyon,,36.737,-111.8229,1
1863,86038,4,Mormon Lake,,34.9083,-111.463,4
1864,86040,4,Page,,36.9147,-111.4558,4
1865,86044,4,Tonalea,,36.7093,-110.8411,4
1866,86045,4,Tuba City,,36.1037,-111.2686,4
1867,86046,4,Williams,,35.5434,-112.1707,4
1868,86052,4,North Rim,,36.2105,-112.0613,4
1869,86053,4,Kaibeto,,36.4025,-111.3518,1
1870,86336,4,Sedona,,34.8266,-111.7506,4
1871,86339,4,Sedona,,34.8697,-111.761,4
1872,86351,4,Sedona,,34.7784,-111.7851,4
1873,86435,4,Supai,,36.2242,-112.6932,4
1874,85135,4,Hayden,,33.0041,-110.7868,4
1875,85192,4,Winkelman,,33.0057,-110.7727,4
1876,85501,4,Globe,,33.4024,-110.7892,4
1877,85502,4,Globe,,33.3942,-110.7865,4
1878,85532,4,Claypool,,33.4154,-110.8149,4
1879,85539,4,Miami,,33.3992,-110.8687,4
1880,85541,4,Payson,,34.2198,-111.2878,4
1881,85542,4,Peridot,,33.3103,-110.4554,4
1882,85544,4,Pine,,34.3435,-111.5353,4
1883,85545,4,Roosevelt,,33.6358,-110.9749,4
1884,85547,4,Payson,,34.2575,-111.2878,1
1885,85550,4,San Carlos,,33.3456,-110.455,4
1886,85553,4,Tonto Basin,,33.8317,-111.2946,4
1887,85554,4,Young,,34.1014,-110.9637,4
1888,85530,4,Bylas,,33.1265,-110.117,4
1889,85531,4,Central,,32.8692,-109.7878,4
1890,85535,4,Eden,,32.9612,-109.8954,4
1891,85536,4,Fort Thomas,,33.0333,-109.9717,4
1892,85543,4,Pima,,32.9097,-109.856,4
1893,85546,4,Safford,,32.8295,-109.6266,4
1894,85548,4,Safford,,32.797,-109.7522,4
1895,85551,4,Solomon,,32.8126,-109.634,4
1896,85552,4,Thatcher,,32.8504,-109.7461,4
1897,85533,4,Clifton,,33.1323,-109.2462,4
1898,85534,4,Duncan,,32.881,-109.2157,4
1899,85540,4,Morenci,,33.0787,-109.3654,4
1900,85922,4,Blue,,33.6512,-109.0685,4
1901,85325,4,Bouse,,33.9578,-114.0036,4
1902,85328,4,Cibola,,33.3164,-114.665,1
1903,85334,4,Ehrenberg,,33.6177,-114.5077,4
1904,85344,4,Parker,,34.15,-114.2891,4
1905,85346,4,Quartzsite,,33.7292,-114.1925,4
1906,85348,4,Salome,,33.7481,-113.5715,4
1907,85357,4,Wenden,,34.0422,-113.458,4
1908,85359,4,Quartzsite,,33.6669,-114.2396,4
1909,85371,4,Poston,,33.9906,-114.3963,4
1910,85001,4,Phoenix,,33.4484,-112.074,4
1911,85002,4,Phoenix,,33.4484,-112.074,4
1912,85003,4,Phoenix,,33.4511,-112.0774,4
1913,85004,4,Phoenix,,33.4557,-112.0686,4
1914,85005,4,Phoenix,,33.4484,-112.074,4
1915,85006,4,Phoenix,,33.465,-112.0474,4
1916,85007,4,Phoenix,,33.4523,-112.0893,4
1917,85008,4,Phoenix,,33.4665,-111.9984,4
1918,85009,4,Phoenix,,33.4564,-112.1284,4
1919,85010,4,Phoenix,,33.4484,-112.074,4
1920,85011,4,Phoenix,,33.4484,-112.074,4
1921,85012,4,Phoenix,,33.5097,-112.0678,4
1922,85013,4,Phoenix,,33.5085,-112.0827,4
1923,85014,4,Phoenix,,33.5103,-112.0556,4
1924,85015,4,Phoenix,,33.5082,-112.1011,4
1925,85016,4,Phoenix,,33.5021,-112.0305,4
1926,85017,4,Phoenix,,33.5153,-112.1212,4
1927,85018,4,Phoenix,,33.4958,-111.9883,4
1928,85019,4,Phoenix,,33.5123,-112.1417,4
1929,85020,4,Phoenix,,33.5623,-112.0559,4
1930,85021,4,Phoenix,,33.56,-112.0927,4
1931,85022,4,Phoenix,,33.6315,-112.052,4
1932,85023,4,Phoenix,,33.6324,-112.1118,4
1933,85024,4,Phoenix,,33.6617,-112.037,4
1934,85025,4,Phoenix,,33.4484,-112.074,4
1935,85026,4,Phoenix,,33.4484,-112.074,4
1936,85027,4,Phoenix,,33.6819,-112.0996,4
1937,85028,4,Phoenix,,33.5851,-112.0087,4
1938,85029,4,Phoenix,,33.5961,-112.1199,4
1939,85030,4,Phoenix,,33.4484,-112.074,4
1940,85031,4,Phoenix,,33.4939,-112.1696,4
1941,85032,4,Phoenix,,33.6238,-112.0044,4
1942,85033,4,Phoenix,,33.4944,-112.2132,4
1943,85034,4,Phoenix,,33.4413,-112.0421,4
1944,85035,4,Phoenix,,33.4724,-112.1832,4
1945,85036,4,Phoenix,,33.4484,-112.074,4
1946,85037,4,Phoenix,,33.4913,-112.2468,4
1947,85038,4,Phoenix,,33.4484,-112.074,4
1948,85039,4,Phoenix,,33.4484,-112.074,4
1949,85040,4,Phoenix,,33.4061,-112.0265,4
1950,85041,4,Phoenix,,33.3889,-112.0954,4
1951,85042,4,Phoenix,,33.3794,-112.0283,4
1952,85043,4,Phoenix,,33.4491,-112.1972,4
1953,85044,4,Phoenix,,33.3291,-111.9943,4
1954,85045,4,Phoenix,,33.3022,-112.1226,4
1955,85046,4,Phoenix,,33.4484,-112.074,4
1956,85048,4,Phoenix,,33.316,-112.0669,4
1957,85050,4,Phoenix,,33.6863,-111.9963,4
1958,85051,4,Phoenix,,33.5591,-112.1332,4
1959,85053,4,Phoenix,,33.6299,-112.1316,4
1960,85054,4,Phoenix,,33.6731,-111.9461,4
1961,85060,4,Phoenix,,33.4484,-112.074,4
1962,85061,4,Phoenix,,33.4484,-112.074,4
1963,85062,4,Phoenix,,33.4484,-112.074,4
1964,85063,4,Phoenix,,33.4484,-112.074,4
1965,85064,4,Phoenix,,33.4484,-112.074,4
1966,85065,4,Phoenix,,33.4484,-112.074,4
1967,85066,4,Phoenix,,33.4484,-112.074,4
1968,85067,4,Phoenix,,33.4484,-112.074,4
1969,85068,4,Phoenix,,33.4484,-112.074,4
1970,85069,4,Phoenix,,33.4484,-112.074,4
1971,85070,4,Phoenix,,33.4484,-112.074,4
1972,85071,4,Phoenix,,33.4484,-112.074,4
1973,85072,4,Phoenix,,33.4484,-112.074,4
1974,85073,4,Phoenix,,33.4484,-112.074,4
1975,85074,4,Phoenix,,33.4484,-112.074,4
1976,85075,4,Phoenix,,33.4484,-112.074,4
1977,85076,4,Phoenix,,33.4484,-112.074,4
1978,85078,4,Phoenix,,33.4484,-112.074,4
1979,85079,4,Phoenix,,33.4484,-112.074,4
1980,85080,4,Phoenix,,33.4484,-112.074,4
1981,85082,4,Phoenix,,33.4484,-112.074,4
1982,85083,4,Phoenix,,33.7352,-112.1294,4
1983,85085,4,Phoenix,,33.7529,-112.0893,4
1984,85086,4,Phoenix,,33.8155,-112.1202,4
1985,85087,4,New River,,33.9235,-112.1279,4
1986,85097,4,Phoenix,,33.4484,-112.074,4
1987,85098,4,Phoenix,,33.4484,-112.074,4
1988,85127,4,Chandler Heights,,33.2125,-111.697,""
1989,85142,4,Queen Creek,,33.2487,-111.6343,4
1990,85190,4,Tortilla Flat,,33.5264,-111.3892,""
1991,85201,4,Mesa,,33.4317,-111.8469,4
1992,85202,4,Mesa,,33.3851,-111.8724,4
1993,85203,4,Mesa,,33.437,-111.8057,4
1994,85204,4,Mesa,,33.3992,-111.7896,4
1995,85205,4,Mesa,,33.4368,-111.7129,4
1996,85206,4,Mesa,,33.4026,-111.7242,4
1997,85207,4,Mesa,,33.4321,-111.6426,4
1998,85208,4,Mesa,,33.3984,-111.6513,4
1999,85209,4,Mesa,,33.3782,-111.6406,4
2000,85210,4,Mesa,,33.3887,-111.8428,4
2001,85211,4,Mesa,,33.4663,-111.8373,4
2002,85212,4,Mesa,,33.3425,-111.6353,4
2003,85213,4,Mesa,,33.4367,-111.7731,4
2004,85214,4,Mesa,,33.4125,-111.8319,4
2005,85215,4,Mesa,,33.4707,-111.7188,4
2006,85216,4,Mesa,,33.4125,-111.8319,4
2007,85224,4,Chandler,,33.3301,-111.8632,4
2008,85225,4,Chandler,,33.3105,-111.8239,4
2009,85226,4,Chandler,,33.3092,-111.9198,4
2010,85233,4,Gilbert,,33.3354,-111.8153,4
2011,85234,4,Gilbert,,33.3527,-111.7809,4
2012,85236,4,Higley,,33.3024,-111.6969,4
2013,85244,4,Chandler,,33.3213,-111.8888,4
2014,85246,4,Chandler,,33.3062,-111.8413,4
2015,85248,4,Chandler,,33.2509,-111.8593,4
2016,85249,4,Chandler,,33.2414,-111.7745,4
2017,85250,4,Scottsdale,,33.5218,-111.9049,4
2018,85251,4,Scottsdale,,33.4936,-111.9167,4
2019,85252,4,Scottsdale,,33.4995,-111.8684,4
2020,85253,4,Paradise Valley,,33.5494,-111.9565,4
2021,85254,4,Scottsdale,,33.6165,-111.9554,4
2022,85255,4,Scottsdale,,33.6968,-111.8892,4
2023,85256,4,Scottsdale,,33.4858,-111.8533,4
2024,85257,4,Scottsdale,,33.4669,-111.9151,4
2025,85258,4,Scottsdale,,33.5647,-111.8931,4
2026,85259,4,Scottsdale,,33.5879,-111.8404,4
2027,85260,4,Scottsdale,,33.6013,-111.8867,4
2028,85261,4,Scottsdale,,33.5092,-111.899,4
2029,85262,4,Scottsdale,,33.7752,-111.7791,4
2030,85263,4,Rio Verde,,33.7225,-111.6757,4
2031,85264,4,Fort Mcdowell,,33.6118,-111.6806,4
2032,85266,4,Scottsdale,,33.7669,-111.9182,4
2033,85267,4,Scottsdale,,33.5092,-111.899,4
2034,85268,4,Fountain Hills,,33.6085,-111.7237,4
2035,85269,4,Fountain Hills,,33.6117,-111.7174,4
2036,85271,4,Scottsdale,,33.5092,-111.899,4
2037,85274,4,Mesa,,33.4125,-111.8319,4
2038,85275,4,Mesa,,33.4125,-111.8319,4
2039,85277,4,Mesa,,33.4125,-111.8319,4
2040,85280,4,Tempe,,33.4014,-111.9313,4
2041,85281,4,Tempe,,33.4227,-111.9261,4
2042,85282,4,Tempe,,33.3917,-111.9249,4
2043,85283,4,Tempe,,33.3665,-111.9312,4
2044,85284,4,Tempe,,33.3363,-111.9197,4
2045,85285,4,Tempe,,33.4148,-111.9093,4
2046,85286,4,Chandler,,33.2711,-111.8311,4
2047,85287,4,Tempe,,33.4285,-111.9349,4
2048,85295,4,Gilbert,,33.3054,-111.7408,4
2049,85296,4,Gilbert,,33.3354,-111.7406,4
2050,85297,4,Gilbert,,33.2781,-111.7096,4
2051,85298,4,Gilbert,,33.2522,-111.7022,4
2052,85299,4,Gilbert,,33.3528,-111.789,4
2053,85301,4,Glendale,,33.5311,-112.1767,4
2054,85302,4,Glendale,,33.5675,-112.1753,4
2055,85303,4,Glendale,,33.5262,-112.2149,4
2056,85304,4,Glendale,,33.5943,-112.1746,4
2057,85305,4,Glendale,,33.5291,-112.2482,4
2058,85306,4,Glendale,,33.6239,-112.1776,4
2059,85307,4,Glendale,,33.5376,-112.3137,4
2060,85308,4,Glendale,,33.6539,-112.1694,4
2061,85309,4,Luke Air Force Base,,33.5387,-112.186,1
2062,85310,4,Glendale,,33.7047,-112.1641,4
2063,85311,4,Glendale,,33.5387,-112.186,4
2064,85312,4,Glendale,,33.5387,-112.186,4
2065,85318,4,Glendale,,33.5387,-112.186,4
2066,85320,4,Aguila,,33.9186,-113.2134,4
2067,85322,4,Arlington,,33.3133,-112.7891,4
2068,85323,4,Avondale,,33.4321,-112.3438,4
2069,85326,4,Buckeye,,33.3703,-112.5838,4
2070,85327,4,Cave Creek,,33.8333,-111.9508,4
2071,85329,4,Cashion,,33.4353,-112.2979,4
2072,85331,4,Cave Creek,,33.8851,-111.9349,4
2073,85335,4,El Mirage,,33.6082,-112.3241,1
2074,85337,4,Gila Bend,,32.9306,-112.7468,4
2075,85338,4,Goodyear,,33.4368,-112.3834,4
2076,85339,4,Laveen,,33.3436,-112.1716,4
2077,85340,4,Litchfield Park,,33.5098,-112.4135,4
2078,85342,4,Morristown,,33.8567,-112.6232,4
2079,85343,4,Palo Verde,,33.3481,-112.6774,4
2080,85345,4,Peoria,,33.5761,-112.2344,1
2081,85351,4,Sun City,,33.6061,-112.2797,1
2082,85353,4,Tolleson,,33.4347,-112.2774,4
2083,85354,4,Tonopah,,33.4228,-112.9528,4
2084,85355,4,Waddell,,33.5673,-112.4387,4
2085,85358,4,Wickenburg,,33.9686,-112.7296,4
2086,85361,4,Wittmann,,33.7637,-112.6142,4
2087,85363,4,Youngtown,,33.5908,-112.3013,4
2088,85372,4,Sun City,,33.5975,-112.2718,4
2089,85373,4,Sun City,,33.6588,-112.3214,4
2090,85374,4,Surprise,,33.63,-112.3314,4
2091,85375,4,Sun City West,,33.6856,-112.3659,4
2092,85376,4,Sun City West,,33.662,-112.3413,4
2093,85377,4,Carefree,,33.824,-111.913,4
2094,85378,4,Surprise,,33.6306,-112.3332,4
2095,85379,4,Surprise,,33.6021,-112.3736,4
2096,85380,4,Peoria,,33.5806,-112.2374,4
2097,85381,4,Peoria,,33.6048,-112.2237,4
2098,85382,4,Peoria,,33.6308,-112.2072,4
2099,85383,4,Peoria,,33.7169,-112.238,4
2100,85385,4,Peoria,,33.5806,-112.2374,4
2101,85387,4,Surprise,,33.7129,-112.4375,4
2102,85388,4,Surprise,,33.6134,-112.4512,4
2103,85390,4,Wickenburg,,33.8944,-112.8603,4
2104,85392,4,Avondale,,33.4777,-112.3093,4
2105,85395,4,Goodyear,,33.479,-112.3947,4
2106,85396,4,Buckeye,,33.468,-112.4787,4
2107,85360,4,Wikieup,,34.7033,-113.6113,4
2108,86021,4,Colorado City,,36.9903,-112.9758,4
2109,86401,4,Kingman,,35.1328,-113.7033,4
2110,86402,4,Kingman,,35.2632,-114.0637,4
2111,86403,4,Lake Havasu City,,34.4814,-114.3483,4
2112,86404,4,Lake Havasu City,,34.5575,-114.3307,4
2113,86405,4,Lake Havasu City,,34.4839,-114.3225,4
2114,86406,4,Lake Havasu City,,34.4228,-114.125,4
2115,86409,4,Kingman,,35.2633,-114.0223,4
2116,86411,4,Hackberry,,35.3692,-113.7272,4
2117,86412,4,Hualapai,,35.3972,-113.8432,1
2118,86413,4,Golden Valley,,35.3002,-114.2215,4
2119,86426,4,Fort Mohave,,35.0052,-114.5687,1
2120,86427,4,Fort Mohave,,35.0043,-114.5812,1
2121,86429,4,Bullhead City,,35.1715,-114.5386,4
2122,86430,4,Bullhead City,,35.1473,-114.5433,4
2123,86431,4,Chloride,,35.3896,-114.2221,4
2124,86432,4,Littlefield,,36.8872,-113.9297,4
2125,86433,4,Oatman,,35.0285,-114.3837,4
2126,86434,4,Peach Springs,,35.5378,-113.4202,4
2127,86436,4,Topock,,34.7784,-114.4817,4
2128,86437,4,Valentine,,35.3788,-113.6141,4
2129,86438,4,Yucca,,34.8722,-114.1494,4
2130,86439,4,Bullhead City,,35.1478,-114.5683,4
2131,86440,4,Mohave Valley,,34.8929,-114.5951,4
2132,86441,4,Dolan Springs,,35.5692,-114.3777,4
2133,86442,4,Bullhead City,,35.106,-114.5947,4
2134,86443,4,Temple Bar Marina,,35.2106,-114.1792,1
2135,86444,4,Meadview,,35.9822,-114.0775,4
2136,86445,4,Willow Beach,,35.7759,-114.5001,1
2137,86446,4,Mohave Valley,,34.8499,-114.5917,4
2138,85901,4,Show Low,,34.2998,-110.0,4
2139,85902,4,Show Low,,34.2981,-110.0352,4
2140,85911,4,Cibecue,,34.0448,-110.4854,4
2141,85912,4,White Mountain Lake,,34.2666,-110.2031,4
2142,85923,4,Clay Springs,,34.3617,-110.2954,4
2143,85926,4,Fort Apache,,33.7906,-109.9887,4
2144,85928,4,Heber,,34.41,-110.5883,4
2145,85929,4,Lakeside,,34.1662,-109.9869,4
2146,85933,4,Overgaard,,34.4086,-110.56,4
2147,85934,4,Pinedale,,34.3003,-110.2457,4
2148,85935,4,Pinetop,,34.1175,-109.9197,4
2149,85937,4,Snowflake,,34.4959,-110.0807,4
2150,85939,4,Taylor,,34.439,-110.0858,4
2151,85941,4,Whiteriver,,33.8021,-109.9937,4
2152,85942,4,Woodruff,,34.7814,-110.0435,4
2153,86025,4,Holbrook,,34.9085,-110.1434,4
2154,86029,4,Sun Valley,,34.9806,-110.0582,4
2155,86030,4,Hotevilla,,35.9278,-110.6729,4
2156,86031,4,Indian Wells,,35.4056,-110.0848,4
2157,86032,4,Joseph City,,34.9814,-110.3373,4
2158,86033,4,Kayenta,,36.6883,-110.2652,4
2159,86034,4,Keams Canyon,,35.8082,-110.2845,4
2160,86039,4,Kykotsmovi Village,,35.8742,-110.6235,4
2161,86042,4,Polacca,,35.8617,-110.3875,4
2162,86043,4,Second Mesa,,35.7933,-110.5051,4
2163,86047,4,Winslow,,35.0242,-110.6974,4
2164,86054,4,Shonto,,36.6159,-110.6477,4
2165,86510,4,Pinon,,36.1002,-110.2211,4
2166,86520,4,Blue Gap,,36.1708,-109.9465,4
2167,85321,4,Ajo,,32.2295,-112.6542,4
2168,85341,4,Lukeville,,31.8826,-112.8157,1
2169,85601,4,Arivaca,,31.5885,-111.316,4
2170,85614,4,Green Valley,,31.8543,-111.0003,4
2171,85619,4,Mount Lemmon,,32.3763,-110.7605,1
2172,85622,4,Green Valley,,31.8269,-111.0755,4
2173,85629,4,Sahuarita,,31.9452,-111.0002,4
2174,85633,4,Sasabe,,31.4887,-111.5421,4
2175,85634,4,Sells,,32.0315,-112.0065,4
2176,85639,4,Topawa,,31.814,-111.8257,4
2177,85641,4,Vail,,32.0027,-110.7053,4
2178,85652,4,Cortaro,,32.4201,-111.1132,4
2179,85653,4,Marana,,32.4047,-111.2736,4
2180,85654,4,Rillito,,32.4148,-111.1562,4
2181,85701,4,Tucson,,32.2139,-110.9694,4
2182,85702,4,Tucson,,32.2217,-110.9265,4
2183,85703,4,Tucson,,32.2217,-110.9265,4
2184,85704,4,Tucson,,32.3379,-110.9855,4
2185,85705,4,Tucson,,32.2691,-110.9845,4
2186,85706,4,Tucson,,32.1392,-110.9451,4
2187,85707,4,Tucson,,32.1696,-110.8751,4
2188,85708,4,Tucson,,32.18,-110.8693,4
2189,85709,4,Tucson,,32.2008,-110.898,4
2190,85710,4,Tucson,,32.2138,-110.824,4
2191,85711,4,Tucson,,32.2127,-110.8829,4
2192,85712,4,Tucson,,32.25,-110.8869,4
2193,85713,4,Tucson,,32.1941,-110.9739,4
2194,85714,4,Tucson,,32.1707,-110.9719,4
2195,85715,4,Tucson,,32.2519,-110.82,4
2196,85716,4,Tucson,,32.2468,-110.9222,4
2197,85717,4,Tucson,,32.2217,-110.9265,4
2198,85718,4,Tucson,,32.3112,-110.9179,4
2199,85719,4,Tucson,,32.2474,-110.9491,4
2200,85720,4,Tucson,,32.2217,-110.9265,4
2201,85721,4,Tucson,,32.2338,-110.95,4
2202,85722,4,Tucson,,32.2217,-110.9265,4
2203,85723,4,Tucson,,32.2217,-110.9265,4
2204,85724,4,Tucson,,32.2406,-110.9443,4
2205,85725,4,Tucson,,32.2217,-110.9265,4
2206,85726,4,Tucson,,32.2027,-110.9453,4
2207,85728,4,Tucson,,32.2217,-110.9265,4
2208,85730,4,Tucson,,32.181,-110.819,4
2209,85731,4,Tucson,,32.2217,-110.9265,4
2210,85732,4,Tucson,,32.2217,-110.9265,4
2211,85733,4,Tucson,,32.2217,-110.9265,4
2212,85734,4,Tucson,,32.0651,-110.9353,4
2213,85735,4,Tucson,,32.093,-111.3472,4
2214,85736,4,Tucson,,31.9011,-111.3702,4
2215,85737,4,Tucson,,32.4142,-110.9466,4
2216,85738,4,Catalina,,32.5056,-110.9211,4
2217,85739,4,Tucson,,32.465,-110.8922,4
2218,85740,4,Tucson,,32.2217,-110.9265,4
2219,85741,4,Tucson,,32.3472,-111.0419,4
2220,85742,4,Tucson,,32.4076,-111.065,4
2221,85743,4,Tucson,,32.3366,-111.1771,4
2222,85744,4,Tucson,,32.2217,-110.9265,4
2223,85745,4,Tucson,,32.2434,-111.0179,4
2224,85746,4,Tucson,,32.1422,-111.0506,4
2225,85747,4,Tucson,,32.0984,-110.7272,4
2226,85748,4,Tucson,,32.215,-110.7758,4
2227,85749,4,Tucson,,32.2733,-110.7658,4
2228,85750,4,Tucson,,32.2974,-110.8404,4
2229,85751,4,Tucson,,32.2217,-110.9265,4
2230,85752,4,Tucson,,32.2217,-110.9265,4
2231,85754,4,Tucson,,32.2217,-110.9265,4
2232,85755,4,Tucson,,32.4227,-110.9768,4
2233,85756,4,Tucson,,32.0839,-110.9004,4
2234,85757,4,Tucson,,32.1336,-111.0973,4
2235,85775,4,Tucson,,32.2217,-110.9265,4
2236,85117,4,Apache Junction,,33.3284,-111.327,""
2237,85118,4,Gold Canyon,,33.3284,-111.3502,4
2238,85119,4,Apache Junction,,33.4001,-111.5028,4
2239,85120,4,Apache Junction,,33.3931,-111.5768,4
2240,85121,4,Bapchule,,33.1405,-111.9128,4
2241,85122,4,Casa Grande,,32.8905,-111.754,4
2242,85123,4,Arizona City,,32.7559,-111.671,4
2243,85128,4,Coolidge,,32.9574,-111.5344,4
2244,85130,4,Casa Grande,,32.8151,-111.7054,4
2245,85131,4,Eloy,,32.7509,-111.5833,4
2246,85132,4,Florence,,32.9969,-111.3612,4
2247,85137,4,Kearny,,33.0594,-110.9123,4
2248,85138,4,Maricopa,,33.0073,-111.9324,4
2249,85139,4,Maricopa,,32.9576,-112.0534,4
2250,85140,4,San Tan Valley,,33.1911,-111.528,4
2251,85141,4,Picacho,,32.6686,-111.4549,4
2252,85143,4,San Tan Valley,,33.1911,-111.528,4
2253,85145,4,Red Rock,,32.58,-111.341,4
2254,85147,4,Sacaton,,33.1234,-111.7384,4
2255,85172,4,Stanfield,,32.8823,-111.966,4
2256,85173,4,Superior,,33.2887,-111.0985,4
2257,85178,4,Apache Junction,,33.405,-111.547,""
2258,85191,4,Valley Farms,,32.9827,-111.4429,""
2259,85193,4,Casa Grande,,32.8554,-111.7973,4
2260,85194,4,Casa Grande,,32.8984,-111.6261,4
2261,85618,4,Mammoth,,32.7239,-110.644,4
2262,85623,4,Oracle,,32.6005,-110.7961,4
2263,85631,4,San Manuel,,32.6209,-110.5992,4
2264,85658,4,Marana,,32.4305,-111.1459,4
2265,85611,4,Elgin,,31.6598,-110.5254,4
2266,85621,4,Nogales,,31.377,-110.9435,4
2267,85624,4,Patagonia,,31.5353,-110.6968,4
2268,85628,4,Nogales,,31.532,-110.9093,4
2269,85637,4,Sonoita,,31.6731,-110.6188,4
2270,85640,4,Tumacacori,,31.5696,-111.0534,4
2271,85645,4,Amado,,31.6723,-111.0986,4
2272,85646,4,Tubac,,31.6126,-111.0459,4
2273,85648,4,Rio Rico,,31.5084,-111.0757,4
2274,85662,4,Nogales,,31.532,-110.9093,4
2275,85324,4,Black Canyon City,,34.0755,-112.134,4
2276,85332,4,Congress,,34.1764,-112.768,4
2277,85362,4,Yarnell,,34.2508,-112.7567,4
2278,86301,4,Prescott,,34.5917,-112.4265,4
2279,86302,4,Prescott,,34.5749,-112.4915,4
2280,86303,4,Prescott,,34.4958,-112.3783,4
2281,86304,4,Prescott,,34.5967,-112.4907,4
2282,86305,4,Prescott,,34.8185,-112.9584,4
2283,86312,4,Prescott Valley,,34.6683,-112.3078,4
2284,86313,4,Prescott,,34.7067,-112.3977,4
2285,86314,4,Prescott Valley,,34.6019,-112.3264,4
2286,86315,4,Prescott Valley,,34.7055,-112.2639,4
2287,86320,4,Ash Fork,,35.215,-112.5027,4
2288,86321,4,Bagdad,,34.5785,-113.1755,4
2289,86322,4,Camp Verde,,34.5697,-111.8551,4
2290,86323,4,Chino Valley,,34.7757,-112.4731,4
2291,86324,4,Clarkdale,,34.7711,-112.0579,4
2292,86325,4,Cornville,,34.7256,-111.9086,4
2293,86326,4,Cottonwood,,34.7055,-112.0091,4
2294,86327,4,Dewey,,34.5368,-112.2567,4
2295,86329,4,Humboldt,,34.5009,-112.2374,4
2296,86331,4,Jerome,,34.7486,-112.1086,4
2297,86332,4,Kirkland,,34.4541,-112.8966,4
2298,86333,4,Mayer,,34.3655,-112.1296,4
2299,86334,4,Paulden,,35.0313,-112.5441,4
2300,86335,4,Rimrock,,34.638,-111.7842,4
2301,86337,4,Seligman,,35.3212,-112.9548,4
2302,86338,4,Skull Valley,,34.5053,-112.6855,4
2303,86340,4,Sedona,,34.7067,-112.3977,1
2304,86341,4,Sedona,,34.7766,-111.7679,1
2305,86342,4,Lake Montezuma,,34.6417,-111.7872,4
2306,86343,4,Crown King,,34.2241,-112.334,4
2307,85333,4,Dateland,,32.8679,-113.4631,4
2308,85336,4,Gadsden,,32.5545,-114.785,1
2309,85347,4,Roll,,32.7517,-113.9891,4
2310,85349,4,San Luis,,32.487,-114.7822,4
2311,85350,4,Somerton,,32.5634,-114.7127,4
2312,85352,4,Tacna,,32.6934,-113.9763,1
2313,85356,4,Wellton,,32.6935,-114.1561,4
2314,85364,4,Yuma,,32.7015,-114.6424,4
2315,85365,4,Yuma,,32.7093,-114.4905,4
2316,85366,4,Yuma,,32.61,-114.6312,4
2317,85367,4,Yuma,,32.6566,-114.4042,4
2318,85369,4,Yuma,,32.7253,-114.6244,4
2319,94501,5,Alameda,,37.7706,-122.2648,4
2320,94502,5,Alameda,,37.7351,-122.2431,4
2321,94536,5,Fremont,,37.5605,-121.9999,4
2322,94537,5,Fremont,,37.6802,-121.9215,4
2323,94538,5,Fremont,,37.5308,-121.9712,4
2324,94539,5,Fremont,,37.5176,-121.9287,4
2325,94540,5,Hayward,,37.6802,-121.9215,4
2326,94541,5,Hayward,,37.674,-122.0894,4
2327,94542,5,Hayward,,37.6586,-122.0472,4
2328,94543,5,Hayward,,37.6688,-122.0808,4
2329,94544,5,Hayward,,37.6374,-122.067,4
2330,94545,5,Hayward,,37.6332,-122.0971,4
2331,94546,5,Castro Valley,,37.7015,-122.0782,4
2332,94550,5,Livermore,,37.683,-121.763,4
2333,94551,5,Livermore,,37.7526,-121.77,4
2334,94552,5,Castro Valley,,37.7131,-122.0381,4
2335,94555,5,Fremont,,37.5735,-122.0469,4
2336,94557,5,Hayward,,37.6802,-121.9215,4
2337,94560,5,Newark,,37.5368,-122.032,4
2338,94566,5,Pleasanton,,37.6658,-121.8755,4
2339,94568,5,Dublin,,37.7166,-121.9226,4
2340,94577,5,San Leandro,,37.7205,-122.1587,4
2341,94578,5,San Leandro,,37.7024,-122.124,4
2342,94579,5,San Leandro,,37.6892,-122.1507,4
2343,94580,5,San Lorenzo,,37.6787,-122.1295,4
2344,94586,5,Sunol,,37.6094,-121.8986,4
2345,94587,5,Union City,,37.5895,-122.0497,4
2346,94588,5,Pleasanton,,37.6873,-121.8957,4
2347,94601,5,Oakland,,37.7806,-122.2166,4
2348,94602,5,Oakland,,37.8011,-122.2104,4
2349,94603,5,Oakland,,37.7402,-122.171,4
2350,94604,5,Oakland,,37.8044,-122.2708,4
2351,94605,5,Oakland,,37.7641,-122.1633,4
2352,94606,5,Oakland,,37.7957,-122.2429,4
2353,94607,5,Oakland,,37.8071,-122.2851,4
2354,94608,5,Emeryville,,37.8365,-122.2804,4
2355,94609,5,Oakland,,37.8361,-122.2637,4
2356,94610,5,Oakland,,37.8126,-122.2443,4
2357,94611,5,Oakland,,37.8471,-122.2223,4
2358,94612,5,Oakland,,37.8085,-122.2668,4
2359,94613,5,Oakland,,37.7811,-122.1866,4
2360,94614,5,Oakland,,37.7277,-122.2046,4
2361,94615,5,Oakland,,37.8067,-122.3004,4
2362,94617,5,Oakland,,37.8078,-122.2717,4
2363,94618,5,Oakland,,37.8431,-122.2402,4
2364,94619,5,Oakland,,37.7878,-122.1884,4
2365,94620,5,Piedmont,,37.8244,-122.2316,4
2366,94621,5,Oakland,,37.7589,-122.1853,4
2367,94622,5,Oakland,,37.799,-122.2337,4
2368,94623,5,Oakland,,37.8044,-122.2708,4
2369,94624,5,Oakland,,37.8044,-122.2708,4
2370,94649,5,Oakland,,37.8044,-122.2708,4
2371,94659,5,Oakland,,37.8044,-122.2708,4
2372,94660,5,Oakland,,37.8044,-122.2708,4
2373,94661,5,Oakland,,37.8044,-122.2708,4
2374,94662,5,Emeryville,,37.8313,-122.2852,4
2375,94666,5,Oakland,,37.8044,-122.2708,4
2376,94701,5,Berkeley,,37.8606,-122.2967,4
2377,94702,5,Berkeley,,37.8656,-122.2851,4
2378,94703,5,Berkeley,,37.863,-122.2749,4
2379,94704,5,Berkeley,,37.8664,-122.257,4
2380,94705,5,Berkeley,,37.8571,-122.25,4
2381,94706,5,Albany,,37.89,-122.2954,4
